{
  "totalCount": 470,
  "centers": [
    {
      "id": "에덴병원산후조리원_광주광역시_북구_면앙로170번길_10,_5.6.7층_(두암동)",
      "name": "에덴병원산후조리원",
      "address": "광주광역시 북구 면앙로170번길 10, 5.6.7층 (두암동)",
      "phone": "062-260-3237",
      "lat": 35.1727807,
      "lng": 126.9315152,
      "motherCapacity": 28,
      "infantCapacity": 28,
      "nurseCount": 7,
      "nurseAidCount": 10
    },
    {
      "id": "신세계병원산후조리원_대구광역시_북구_동북로_196_(산격동)",
      "name": "신세계병원산후조리원",
      "address": "대구광역시 북구 동북로 196 (산격동)",
      "phone": "053-954-7771",
      "lat": 35.8946334,
      "lng": 128.6158826,
      "motherCapacity": 20,
      "infantCapacity": 20,
      "nurseCount": 9,
      "nurseAidCount": 0
    },
    {
      "id": "정산후조리원_대구광역시_북구_학정로_415,_메가타운_6층_(동천동)",
      "name": "정산후조리원",
      "address": "대구광역시 북구 학정로 415, 메가타운 6층 (동천동)",
      "phone": "053-325-2900",
      "lat": 35.9388448,
      "lng": 128.565207,
      "motherCapacity": 20,
      "infantCapacity": 20,
      "nurseCount": 2,
      "nurseAidCount": 8
    },
    {
      "id": "엘르메디_여성의원_부설_산후조리원_경상남도_거제시_거제중앙로_1925_(고현동)",
      "name": "엘르메디 여성의원 부설 산후조리원",
      "address": "경상남도 거제시 거제중앙로 1925 (고현동)",
      "phone": "055-638-0037",
      "lat": 34.8867106,
      "lng": 128.6242154,
      "motherCapacity": 15,
      "infantCapacity": 15,
      "nurseCount": 2,
      "nurseAidCount": 6
    },
    {
      "id": "민병열산부인과산후조리원_충청북도_청주시_서원구_사직대로_101_(사창동,_민병열산부인과)",
      "name": "민병열산부인과산후조리원",
      "address": "충청북도 청주시 서원구 사직대로 101 (사창동, 민병열산부인과)",
      "phone": "043-262-8541",
      "lat": 36.6323223,
      "lng": 127.4609435,
      "motherCapacity": 20,
      "infantCapacity": 20,
      "nurseCount": 2,
      "nurseAidCount": 6
    },
    {
      "id": "럭스엘리시아산후조리원_충청북도_청주시_서원구_복대로17번길_7-42_(개신동)",
      "name": "럭스엘리시아산후조리원",
      "address": "충청북도 청주시 서원구 복대로17번길 7-42 (개신동)",
      "phone": "043-239-0002",
      "lat": 36.6144353,
      "lng": 127.4474806,
      "motherCapacity": 57,
      "infantCapacity": 57,
      "nurseCount": 4,
      "nurseAidCount": 23
    },
    {
      "id": "주식회사_리더스_산후조리원_서울특별시_영등포구_선유로_59_(문래동6가)",
      "name": "주식회사 리더스 산후조리원",
      "address": "서울특별시 영등포구 선유로 59 (문래동6가)",
      "phone": "02-3667-3579",
      "lat": 37.516468,
      "lng": 126.891054,
      "motherCapacity": 20,
      "infantCapacity": 20,
      "nurseCount": 3,
      "nurseAidCount": 16
    },
    {
      "id": "더_아이리스_산후조리원_서울특별시_영등포구_영중로_140_(영등포동8가,_영중로_140)",
      "name": "더 아이리스 산후조리원",
      "address": "서울특별시 영등포구 영중로 140 (영등포동8가, 영중로 140)",
      "phone": "02-2068-6167",
      "lat": 37.5259796,
      "lng": 126.9081707,
      "motherCapacity": 14,
      "infantCapacity": 14,
      "nurseCount": 3,
      "nurseAidCount": 7
    },
    {
      "id": "(주)와이케이동그라미_레피리움_강남지점_서울특별시_서초구_동작대로_172_(방배동,로얄쇼핑센터_3층)",
      "name": "(주)와이케이동그라미 레피리움 강남지점",
      "address": "서울특별시 서초구 동작대로 172 (방배동,로얄쇼핑센터 3층)",
      "phone": "02-532-1633",
      "lat": 37.4890482,
      "lng": 126.98523,
      "motherCapacity": 14,
      "infantCapacity": 14,
      "nurseCount": 3,
      "nurseAidCount": 4
    },
    {
      "id": "서래_네송스_산후조리원_서울특별시_서초구_사평대로18길_10,_부림빌딩_7,8층_(반포동)",
      "name": "서래 네송스 산후조리원",
      "address": "서울특별시 서초구 사평대로18길 10, 부림빌딩 7,8층 (반포동)",
      "phone": "537-3232",
      "lat": 37.4956451,
      "lng": 126.9976885,
      "motherCapacity": 8,
      "infantCapacity": 8,
      "nurseCount": 4,
      "nurseAidCount": 19
    },
    {
      "id": "(주)사임당아모리움산후조리원_서울특별시_서초구_서운로_216_(서초동)",
      "name": "(주)사임당아모리움산후조리원",
      "address": "서울특별시 서초구 서운로 216 (서초동)",
      "phone": "02-533-6169",
      "lat": 37.4995706,
      "lng": 127.023954,
      "motherCapacity": 28,
      "infantCapacity": 28,
      "nurseCount": 6,
      "nurseAidCount": 8
    },
    {
      "id": "(주)센트리움산후조리원_서울특별시_서초구_고무래로_22_(반포동,_쌍동빌딩서관_6층)",
      "name": "(주)센트리움산후조리원",
      "address": "서울특별시 서초구 고무래로 22 (반포동, 쌍동빌딩서관 6층)",
      "phone": "535-3853",
      "lat": 37.4997078,
      "lng": 127.0128246,
      "motherCapacity": 17,
      "infantCapacity": 18,
      "nurseCount": 4,
      "nurseAidCount": 5
    },
    {
      "id": "포유문산후조리원_서울특별시_송파구_양재대로60길_3_(가락동)",
      "name": "포유문산후조리원",
      "address": "서울특별시 송파구 양재대로60길 3 (가락동)",
      "phone": "02-6425-1600",
      "lat": 37.4959002,
      "lng": 127.1188326,
      "motherCapacity": 23,
      "infantCapacity": 23,
      "nurseCount": 2,
      "nurseAidCount": 5
    },
    {
      "id": "송파산모건강증진센터산후조리원_서울특별시_송파구_충민로2길_20_(장지동,_송파산모건강증진센터)",
      "name": "송파산모건강증진센터산후조리원",
      "address": "서울특별시 송파구 충민로2길 20 (장지동, 송파산모건강증진센터)",
      "phone": 24313535,
      "lat": 37.4751198,
      "lng": 127.1292455,
      "motherCapacity": 27,
      "infantCapacity": 27,
      "nurseCount": 6,
      "nurseAidCount": 16
    },
    {
      "id": "베르사유산후조리원_서울특별시_송파구_석촌호수로_210,_201호_(석촌동)",
      "name": "베르사유산후조리원",
      "address": "서울특별시 송파구 석촌호수로 210, 201호 (석촌동)",
      "phone": "02-413-0035",
      "lat": 37.5037586,
      "lng": 127.1024831,
      "motherCapacity": 10,
      "infantCapacity": 11,
      "nurseCount": 3,
      "nurseAidCount": 4
    },
    {
      "id": "(주)푸른잎산후조리원_서울특별시_송파구_양산로_12_(거여동,_6층)",
      "name": "(주)푸른잎산후조리원",
      "address": "서울특별시 송파구 양산로 12 (거여동, 6층)",
      "phone": "02-3401-3838",
      "lat": 37.4871132,
      "lng": 127.1457373,
      "motherCapacity": 16,
      "infantCapacity": 16,
      "nurseCount": 3,
      "nurseAidCount": 7
    },
    {
      "id": "라렌느산후조리원_서울특별시_송파구_석촌호수로_156_(삼전동,_선플라자빌딩_6,7층)",
      "name": "라렌느산후조리원",
      "address": "서울특별시 송파구 석촌호수로 156 (삼전동, 선플라자빌딩 6,7층)",
      "phone": "414-3322",
      "lat": 37.5039945,
      "lng": 127.0963844,
      "motherCapacity": 19,
      "infantCapacity": 19,
      "nurseCount": 4,
      "nurseAidCount": 4
    },
    {
      "id": "라벨메르산후조리원_서울특별시_송파구_송파대로49길_3_(석촌동,_4,5층)",
      "name": "라벨메르산후조리원",
      "address": "서울특별시 송파구 송파대로49길 3 (석촌동, 4,5층)",
      "phone": 4843710,
      "lat": 37.5049362,
      "lng": 127.1060636,
      "motherCapacity": 15,
      "infantCapacity": 15,
      "nurseCount": 4,
      "nurseAidCount": 6
    },
    {
      "id": "소피아산후조리원_서울특별시_송파구_중대로_317,_세우빌딩_3,4층_(오금동)",
      "name": "소피아산후조리원",
      "address": "서울특별시 송파구 중대로 317, 세우빌딩 3,4층 (오금동)",
      "phone": "02-3401-1004",
      "lat": 37.5061018,
      "lng": 127.1355174,
      "motherCapacity": 20,
      "infantCapacity": 20,
      "nurseCount": 4,
      "nurseAidCount": 2
    },
    {
      "id": "레이나_산후조리원_서울특별시_송파구_마천로_4(방이동)",
      "name": "레이나 산후조리원",
      "address": "서울특별시 송파구 마천로 4(방이동)",
      "phone": "1661-3118",
      "lat": 37.5074297,
      "lng": 127.1236026,
      "motherCapacity": 25,
      "infantCapacity": 26,
      "nurseCount": 3,
      "nurseAidCount": 12
    },
    {
      "id": "더드림산후조리원_서울특별시_중구_다산로36길_11,_동산빌딩_6,7층_(신당동)",
      "name": "더드림산후조리원",
      "address": "서울특별시 중구 다산로36길 11, 동산빌딩 6,7층 (신당동)",
      "phone": 222316375,
      "lat": 37.5600766,
      "lng": 127.0183152,
      "motherCapacity": 12,
      "infantCapacity": 12,
      "nurseCount": 4,
      "nurseAidCount": 9
    },
    {
      "id": "와튼젤리_산후조리원(용산마포점)_서울특별시_중구_중림로_31,_이화빌딩(중림동)_1층_(중림동)",
      "name": "와튼젤리 산후조리원(용산마포점)",
      "address": "서울특별시 중구 중림로 31, 이화빌딩(중림동) 1층 (중림동)",
      "phone": 260121010,
      "lat": 37.5555535,
      "lng": 126.9692554,
      "motherCapacity": 19,
      "infantCapacity": 19,
      "nurseCount": 4,
      "nurseAidCount": 4
    },
    {
      "id": "(주)한강가온누리산후조리원_경기도_김포시_태장로_808_(장기동)",
      "name": "(주)한강가온누리산후조리원",
      "address": "경기도 김포시 태장로 808 (장기동)",
      "phone": "031-8049-3535",
      "lat": 37.6347927,
      "lng": 126.6799164,
      "motherCapacity": 20,
      "infantCapacity": 20,
      "nurseCount": 3,
      "nurseAidCount": 3
    },
    {
      "id": "도로시_산후조리원_충청남도_당진시_시청1로_72_(읍내동)",
      "name": "도로시 산후조리원",
      "address": "충청남도 당진시 시청1로 72 (읍내동)",
      "phone": "041-353-8483",
      "lat": 36.8883491,
      "lng": 126.6416769,
      "motherCapacity": 7,
      "infantCapacity": 7,
      "nurseCount": 2,
      "nurseAidCount": 4
    },
    {
      "id": "리베르리움_산후조리원_경기도_수원시_영통구_삼성로_34_(신동)",
      "name": "리베르리움 산후조리원",
      "address": "경기도 수원시 영통구 삼성로 34 (신동)",
      "phone": "",
      "lat": 37.2447119,
      "lng": 127.051238,
      "motherCapacity": 39,
      "infantCapacity": 39,
      "nurseCount": 3,
      "nurseAidCount": 7
    },
    {
      "id": "VIP산후조리원_서울특별시_금천구_시흥대로_429,_삼희빌딩_3층_(독산동)",
      "name": "VIP산후조리원",
      "address": "서울특별시 금천구 시흥대로 429, 삼희빌딩 3층 (독산동)",
      "phone": "02-851-1566",
      "lat": 37.469149,
      "lng": 126.8997662,
      "motherCapacity": 12,
      "infantCapacity": 12,
      "nurseCount": 3,
      "nurseAidCount": 6
    },
    {
      "id": "(주)김혜정_대구광역시_달서구_구마로_201,_2,3,4층_(성당동)",
      "name": "(주)김혜정",
      "address": "대구광역시 달서구 구마로 201, 2,3,4층 (성당동)",
      "phone": "053-656-8575",
      "lat": 35.8345377,
      "lng": 128.5520451,
      "motherCapacity": 23,
      "infantCapacity": 24,
      "nurseCount": 5,
      "nurseAidCount": 12
    },
    {
      "id": "미래산후조리원(신미래->미래)_대구광역시_달서구_와룡로_203_(죽전동)",
      "name": "미래산후조리원(신미래->미래)",
      "address": "대구광역시 달서구 와룡로 203 (죽전동)",
      "phone": "608-7200",
      "lat": 35.8478628,
      "lng": 128.5390621,
      "motherCapacity": 26,
      "infantCapacity": 26,
      "nurseCount": 7,
      "nurseAidCount": 8
    },
    {
      "id": "꿈담산후조리원_대구광역시_달서구_이곡서로_11_(이곡동)",
      "name": "꿈담산후조리원",
      "address": "대구광역시 달서구 이곡서로 11 (이곡동)",
      "phone": "053-583-7447",
      "lat": 35.8507497,
      "lng": 128.5079765,
      "motherCapacity": 17,
      "infantCapacity": 17,
      "nurseCount": 2,
      "nurseAidCount": 3
    },
    {
      "id": "여성아이산후조리원_대구광역시_달서구_월배로_141,_6-8층_(진천동)",
      "name": "여성아이산후조리원",
      "address": "대구광역시 달서구 월배로 141, 6-8층 (진천동)",
      "phone": "1877-6622",
      "lat": 35.813012,
      "lng": 128.5319474,
      "motherCapacity": 41,
      "infantCapacity": 41,
      "nurseCount": 7,
      "nurseAidCount": 5
    },
    {
      "id": "로즈맘산후조리원_대구광역시_달성군_다사읍_달구벌대로_874",
      "name": "로즈맘산후조리원",
      "address": "대구광역시 달성군 다사읍 달구벌대로 874",
      "phone": "053-592-3575",
      "lat": 35.8549784,
      "lng": 128.4668528,
      "motherCapacity": 19,
      "infantCapacity": 19,
      "nurseCount": 3,
      "nurseAidCount": 8
    },
    {
      "id": "프로마드레_산후조리원_대구광역시_달성군_유가읍_테크노순환로12길_4,_프로마드레_산후조리원_6,7층_608,609,610,611,701호",
      "name": "프로마드레 산후조리원",
      "address": "대구광역시 달성군 유가읍 테크노순환로12길 4, 프로마드레 산후조리원 6,7층 608,609,610,611,701호",
      "phone": "053-627-5555",
      "lat": 35.6901593,
      "lng": 128.470986,
      "motherCapacity": 28,
      "infantCapacity": 28,
      "nurseCount": 2,
      "nurseAidCount": 5
    },
    {
      "id": "리엘산후조리원_대구광역시_달서구_월배로_58_(진천동)",
      "name": "리엘산후조리원",
      "address": "대구광역시 달서구 월배로 58 (진천동)",
      "phone": "053-636-2221",
      "lat": 35.8100394,
      "lng": 128.5233017,
      "motherCapacity": 25,
      "infantCapacity": 25,
      "nurseCount": 5,
      "nurseAidCount": 10
    },
    {
      "id": "로즈마리산후조리원_대구광역시_북구_팔거천동로_215_(동천동)",
      "name": "로즈마리산후조리원",
      "address": "대구광역시 북구 팔거천동로 215 (동천동)",
      "phone": "053-210-7737",
      "lat": 35.9402241,
      "lng": 128.5600033,
      "motherCapacity": 22,
      "infantCapacity": 22,
      "nurseCount": 3,
      "nurseAidCount": 7
    },
    {
      "id": "웰(well)산후조리원_대구광역시_북구_팔거천동로_218,_4~7층_(동천동)",
      "name": "웰(well)산후조리원",
      "address": "대구광역시 북구 팔거천동로 218, 4~7층 (동천동)",
      "phone": "053-314-0113",
      "lat": 35.9403467,
      "lng": 128.5608167,
      "motherCapacity": 28,
      "infantCapacity": 28,
      "nurseCount": 4,
      "nurseAidCount": 6
    },
    {
      "id": "안동성소병원_산후조리원_경상북도_안동시_서동문로_99,_안동성소병원_(금곡동)",
      "name": "안동성소병원 산후조리원",
      "address": "경상북도 안동시 서동문로 99, 안동성소병원 (금곡동)",
      "phone": "054-850-8114",
      "lat": 36.5648142,
      "lng": 128.7245494,
      "motherCapacity": 12,
      "infantCapacity": 12,
      "nurseCount": 2,
      "nurseAidCount": 5
    },
    {
      "id": "공주제일메디컬센터미앤맘산후조리원_충청남도_공주시_번영1로_124_(신관동)",
      "name": "공주제일메디컬센터미앤맘산후조리원",
      "address": "충청남도 공주시 번영1로 124 (신관동)",
      "phone": "041-840-1080",
      "lat": 36.4711667,
      "lng": 127.1432981,
      "motherCapacity": 14,
      "infantCapacity": 14,
      "nurseCount": 2,
      "nurseAidCount": 6
    },
    {
      "id": "미즈맘산후조리원_충청남도_당진시_당진중앙2로_415,_7,8층_(수청동)",
      "name": "미즈맘산후조리원",
      "address": "충청남도 당진시 당진중앙2로 415, 7,8층 (수청동)",
      "phone": "041)355-4800",
      "lat": 36.8977041,
      "lng": 126.6473058,
      "motherCapacity": 14,
      "infantCapacity": 14,
      "nurseCount": 4,
      "nurseAidCount": 8
    },
    {
      "id": "충남_홍성_공공산후조리원_충청남도_홍성군_홍성읍_조양로_224,_홍성의료원_1층",
      "name": "충남 홍성 공공산후조리원",
      "address": "충청남도 홍성군 홍성읍 조양로 224, 홍성의료원 1층",
      "phone": "041-630-6114",
      "lat": 36.5960511,
      "lng": 126.6764278,
      "motherCapacity": 8,
      "infantCapacity": 9,
      "nurseCount": 6,
      "nurseAidCount": 3
    },
    {
      "id": "미즈산후조리원_충청남도_아산시_번영로_204_(모종동)",
      "name": "미즈산후조리원",
      "address": "충청남도 아산시 번영로 204 (모종동)",
      "phone": "",
      "lat": 36.7815291,
      "lng": 127.0154073,
      "motherCapacity": 11,
      "infantCapacity": 11,
      "nurseCount": 4,
      "nurseAidCount": 10
    },
    {
      "id": "한마음산후조리원_충청남도_서산시_율지4로_5_(동문동)",
      "name": "한마음산후조리원",
      "address": "충청남도 서산시 율지4로 5 (동문동)",
      "phone": 416678560,
      "lat": 36.7774641,
      "lng": 126.4619118,
      "motherCapacity": 13,
      "infantCapacity": 13,
      "nurseCount": 2,
      "nurseAidCount": 6
    },
    {
      "id": "엠산후조리원_충청남도_서산시_남부순환로_1031,_2층_(예천동)",
      "name": "엠산후조리원",
      "address": "충청남도 서산시 남부순환로 1031, 2층 (예천동)",
      "phone": "041-429-2004",
      "lat": 36.7652472,
      "lng": 126.4541567,
      "motherCapacity": 18,
      "infantCapacity": 18,
      "nurseCount": 3,
      "nurseAidCount": 8
    },
    {
      "id": "연세하임산후조리원_충청남도_천안시_동남구_수곡2길_17-17_(신방동)",
      "name": "연세하임산후조리원",
      "address": "충청남도 천안시 동남구 수곡2길 17-17 (신방동)",
      "phone": "041-412-5566",
      "lat": 36.787979,
      "lng": 127.1289273,
      "motherCapacity": 26,
      "infantCapacity": 26,
      "nurseCount": 3,
      "nurseAidCount": 20
    },
    {
      "id": "퀸스산후조리원_충청남도_천안시_서북구_성정공원1길_9-13,_2,3,10,11층_(성정동)",
      "name": "퀸스산후조리원",
      "address": "충청남도 천안시 서북구 성정공원1길 9-13, 2,3,10,11층 (성정동)",
      "phone": "902-1000",
      "lat": 36.8235997,
      "lng": 127.1399112,
      "motherCapacity": 39,
      "infantCapacity": 39,
      "nurseCount": 9,
      "nurseAidCount": 38
    },
    {
      "id": "혜성산후조리원_충청남도_천안시_서북구_미라2길_18-11_(쌍용동)",
      "name": "혜성산후조리원",
      "address": "충청남도 천안시 서북구 미라2길 18-11 (쌍용동)",
      "phone": "570-9300",
      "lat": 36.7980507,
      "lng": 127.1325938,
      "motherCapacity": 15,
      "infantCapacity": 15,
      "nurseCount": 3,
      "nurseAidCount": 8
    },
    {
      "id": "주식회사_아주르852_The앙즈로산후조리원_충청남도_천안시_서북구_불당25로_104(불당동)",
      "name": "주식회사 아주르852 The앙즈로산후조리원",
      "address": "충청남도 천안시 서북구 불당25로 104(불당동)",
      "phone": "",
      "lat": 36.8076594,
      "lng": 127.1086653,
      "motherCapacity": 37,
      "infantCapacity": 45,
      "nurseCount": 3,
      "nurseAidCount": 13
    },
    {
      "id": "주식회사_삼성미즈산후조리원_충청남도_아산시_배방읍_희망로46번길_16",
      "name": "주식회사 삼성미즈산후조리원",
      "address": "충청남도 아산시 배방읍 희망로46번길 16",
      "phone": "041-903-2277",
      "lat": 36.7852764,
      "lng": 127.1067134,
      "motherCapacity": 41,
      "infantCapacity": 41,
      "nurseCount": 3,
      "nurseAidCount": 5
    },
    {
      "id": "(주)다온미래산후조리원_충청남도_아산시_배방읍_배방로_26_(다온팰리스)",
      "name": "(주)다온미래산후조리원",
      "address": "충청남도 아산시 배방읍 배방로 26 (다온팰리스)",
      "phone": "041-549-3582",
      "lat": 36.7716544,
      "lng": 127.0560324,
      "motherCapacity": 16,
      "infantCapacity": 16,
      "nurseCount": 2,
      "nurseAidCount": 4
    },
    {
      "id": "지엔산후조리원_경기도_평택시_비전5로_3_(비전동)",
      "name": "지엔산후조리원",
      "address": "경기도 평택시 비전5로 3 (비전동)",
      "phone": "1800-7050",
      "lat": 36.997049,
      "lng": 127.1137595,
      "motherCapacity": 23,
      "infantCapacity": 23,
      "nurseCount": 2,
      "nurseAidCount": 7
    },
    {
      "id": "더네이처_산후조리원_경기도_평택시_송탄로_260,_더네이처_산후조리원_서정동_8-11층_(서정동)",
      "name": "더네이처 산후조리원",
      "address": "경기도 평택시 송탄로 260, 더네이처 산후조리원 서정동 8-11층 (서정동)",
      "phone": "031-668-3759",
      "lat": 37.063928,
      "lng": 127.0610179,
      "motherCapacity": 19,
      "infantCapacity": 19,
      "nurseCount": 3,
      "nurseAidCount": 4
    },
    {
      "id": "안중산후조리원_경기도_평택시_안중읍_안중로131번길_14-15,_4층",
      "name": "안중산후조리원",
      "address": "경기도 평택시 안중읍 안중로131번길 14-15, 4층",
      "phone": "070-4284-7924",
      "lat": 36.9871329,
      "lng": 126.9316268,
      "motherCapacity": 7,
      "infantCapacity": 7,
      "nurseCount": 3,
      "nurseAidCount": 3
    },
    {
      "id": "(주)_럭셔리포레_산후조리원_경기도_평택시_비전2로_121_(비전동)",
      "name": "(주) 럭셔리포레 산후조리원",
      "address": "경기도 평택시 비전2로 121 (비전동)",
      "phone": "031-651-8279",
      "lat": 36.9995973,
      "lng": 127.1065221,
      "motherCapacity": 17,
      "infantCapacity": 19,
      "nurseCount": 2,
      "nurseAidCount": 3
    },
    {
      "id": "예일퀸스하우스산후조리원_경기도_평택시_중앙로_144_(합정동)",
      "name": "예일퀸스하우스산후조리원",
      "address": "경기도 평택시 중앙로 144 (합정동)",
      "phone": "031-656-3885",
      "lat": 36.9894686,
      "lng": 127.1010757,
      "motherCapacity": 20,
      "infantCapacity": 20,
      "nurseCount": 3,
      "nurseAidCount": 8
    },
    {
      "id": "맘스프링산후조리원_경기도_하남시_덕풍동로_111-15,_리치플러스_9층_(덕풍동)",
      "name": "맘스프링산후조리원",
      "address": "경기도 하남시 덕풍동로 111-15, 리치플러스 9층 (덕풍동)",
      "phone": "031-699-8177",
      "lat": 37.5486325,
      "lng": 127.2100548,
      "motherCapacity": 18,
      "infantCapacity": 18,
      "nurseCount": 0,
      "nurseAidCount": 0
    },
    {
      "id": "청율산후조리원_경기도_오산시_경기대로_154,_패션폴라리스_6층_607~609호_(원동)",
      "name": "청율산후조리원",
      "address": "경기도 오산시 경기대로 154, 패션폴라리스 6층 607~609호 (원동)",
      "phone": "031-373-3567",
      "lat": 37.135668,
      "lng": 127.0759608,
      "motherCapacity": 12,
      "infantCapacity": 12,
      "nurseCount": 3,
      "nurseAidCount": 5
    },
    {
      "id": "마리나산부인과부설_마리나산후조리원_경기도_이천시_경충대로_2564_(중리동)",
      "name": "마리나산부인과부설 마리나산후조리원",
      "address": "경기도 이천시 경충대로 2564 (중리동)",
      "phone": "636-0552",
      "lat": 37.2723785,
      "lng": 127.4502959,
      "motherCapacity": 14,
      "infantCapacity": 14,
      "nurseCount": 3,
      "nurseAidCount": 11
    },
    {
      "id": "YJB산후조리원_경기도_이천시_이섭대천로_1186_(중리동,7층)",
      "name": "YJB산후조리원",
      "address": "경기도 이천시 이섭대천로 1186 (중리동,7층)",
      "phone": "635-5300",
      "lat": 37.273371,
      "lng": 127.4493767,
      "motherCapacity": 12,
      "infantCapacity": 12,
      "nurseCount": 3,
      "nurseAidCount": 11
    },
    {
      "id": "라움산후조리원_경기도_의왕시_포일세거리로_10,_3층_(포일동,_포일프라임타워)",
      "name": "라움산후조리원",
      "address": "경기도 의왕시 포일세거리로 10, 3층 (포일동, 포일프라임타워)",
      "phone": "031-422-5155",
      "lat": 37.3932411,
      "lng": 126.9878397,
      "motherCapacity": 19,
      "infantCapacity": 19,
      "nurseCount": 5,
      "nurseAidCount": 8
    },
    {
      "id": "웰하이_산후조리원_부산광역시_강서구_명지오션시티4로_95,_웰하이_산후조리원_(명지동)",
      "name": "웰하이 산후조리원",
      "address": "부산광역시 강서구 명지오션시티4로 95, 웰하이 산후조리원 (명지동)",
      "phone": "",
      "lat": 35.0773506,
      "lng": 128.9061757,
      "motherCapacity": 8,
      "infantCapacity": 8,
      "nurseCount": 2,
      "nurseAidCount": 1
    },
    {
      "id": "연세아란산후조리원_경기도_하남시_미사강변대로54번길_121,_연세아란빌딩_6,7층_(풍산동)",
      "name": "연세아란산후조리원",
      "address": "경기도 하남시 미사강변대로54번길 121, 연세아란빌딩 6,7층 (풍산동)",
      "phone": "031-793-8300",
      "lat": 37.5550986,
      "lng": 127.1909306,
      "motherCapacity": 17,
      "infantCapacity": 17,
      "nurseCount": 3,
      "nurseAidCount": 5
    },
    {
      "id": "경기_여주공공산후조리원_경기도_여주시_여흥로160번길_16,_경기도공공산후조리원_(상동)",
      "name": "경기 여주공공산후조리원",
      "address": "경기도 여주시 여흥로160번길 16, 경기도공공산후조리원 (상동)",
      "phone": "031-881-9500",
      "lat": 37.2915405,
      "lng": 127.6418242,
      "motherCapacity": 13,
      "infantCapacity": 14,
      "nurseCount": 3,
      "nurseAidCount": 6
    },
    {
      "id": "레피리움시그니쳐은평산후조리원_서울특별시_은평구_통일로_856,_메트로타워_8층_(불광동)",
      "name": "레피리움시그니쳐은평산후조리원",
      "address": "서울특별시 은평구 통일로 856, 메트로타워 8층 (불광동)",
      "phone": "02-6941-1231",
      "lat": 37.6168445,
      "lng": 126.923574,
      "motherCapacity": 21,
      "infantCapacity": 21,
      "nurseCount": 4,
      "nurseAidCount": 4
    },
    {
      "id": "히아신스산후조리원_경기도_의정부시_부용로_105,_프레티넘프라자2_6층_(금오동)",
      "name": "히아신스산후조리원",
      "address": "경기도 의정부시 부용로 105, 프레티넘프라자2 6층 (금오동)",
      "phone": "031-853-9115",
      "lat": 37.7485729,
      "lng": 127.071684,
      "motherCapacity": 25,
      "infantCapacity": 25,
      "nurseCount": 3,
      "nurseAidCount": 2
    },
    {
      "id": "더엘산후조리원_광주광역시_광산구_무진대로_239,_4~5층_(우산동)",
      "name": "더엘산후조리원",
      "address": "광주광역시 광산구 무진대로 239, 4~5층 (우산동)",
      "phone": "",
      "lat": 35.1592928,
      "lng": 126.8088694,
      "motherCapacity": 21,
      "infantCapacity": 24,
      "nurseCount": 3,
      "nurseAidCount": 4
    },
    {
      "id": "마더힐산후조리원_광주광역시_북구_우치로422번길_17,_6층_(삼각동)",
      "name": "마더힐산후조리원",
      "address": "광주광역시 북구 우치로422번길 17, 6층 (삼각동)",
      "phone": 625758787,
      "lat": 35.2008979,
      "lng": 126.9042024,
      "motherCapacity": 23,
      "infantCapacity": 27,
      "nurseCount": 3,
      "nurseAidCount": 10
    },
    {
      "id": "강원특별자치도삼척의료원_공공산후조리원_강원특별자치도_삼척시_오십천로_418_(남양동,_삼척의료원)",
      "name": "강원특별자치도삼척의료원 공공산후조리원",
      "address": "강원특별자치도 삼척시 오십천로 418 (남양동, 삼척의료원)",
      "phone": "033-570-7348",
      "lat": 37.4375201,
      "lng": 129.1661419,
      "motherCapacity": 13,
      "infantCapacity": 15,
      "nurseCount": 5,
      "nurseAidCount": 4
    },
    {
      "id": "닥터안산후조리원_대구광역시_서구_서대구로_49,_3~5층_(내당동)",
      "name": "닥터안산후조리원",
      "address": "대구광역시 서구 서대구로 49, 3~5층 (내당동)",
      "phone": "053-562-0100",
      "lat": 35.8593849,
      "lng": 128.5581233,
      "motherCapacity": 20,
      "infantCapacity": 20,
      "nurseCount": 3,
      "nurseAidCount": 5
    },
    {
      "id": "아델리아_산후조리원_대구광역시_동구_안심로_54,_2,3층_(율하동)",
      "name": "아델리아 산후조리원",
      "address": "대구광역시 동구 안심로 54, 2,3층 (율하동)",
      "phone": "963-6663",
      "lat": 35.8673783,
      "lng": 128.6938763,
      "motherCapacity": 23,
      "infantCapacity": 20,
      "nurseCount": 3,
      "nurseAidCount": 8
    },
    {
      "id": "여성M파크_산후조리원_대구광역시_수성구_동대구로_271_(범어동)",
      "name": "여성M파크 산후조리원",
      "address": "대구광역시 수성구 동대구로 271 (범어동)",
      "phone": "740-7700",
      "lat": 35.8517526,
      "lng": 128.6271765,
      "motherCapacity": 22,
      "infantCapacity": 15,
      "nurseCount": 6,
      "nurseAidCount": 3
    },
    {
      "id": "시엘_산후조리원_대구광역시_수성구_달구벌대로_3316,_4~7층_(신매동)",
      "name": "시엘 산후조리원",
      "address": "대구광역시 수성구 달구벌대로 3316, 4~7층 (신매동)",
      "phone": "053-241-1009",
      "lat": 35.8334035,
      "lng": 128.7207985,
      "motherCapacity": 27,
      "infantCapacity": 27,
      "nurseCount": 7,
      "nurseAidCount": 8
    },
    {
      "id": "더블유_산후조리원_대구광역시_수성구_화랑로_58_(만촌동)",
      "name": "더블유 산후조리원",
      "address": "대구광역시 수성구 화랑로 58 (만촌동)",
      "phone": "757-2500",
      "lat": 35.867947,
      "lng": 128.6361191,
      "motherCapacity": 21,
      "infantCapacity": 21,
      "nurseCount": 13,
      "nurseAidCount": 5
    },
    {
      "id": "산후조리원_지온_대구광역시_수성구_청수로_166_(지산동,1,_2층)",
      "name": "산후조리원 지온",
      "address": "대구광역시 수성구 청수로 166 (지산동,1, 2층)",
      "phone": "765-0057",
      "lat": 35.8360646,
      "lng": 128.628419,
      "motherCapacity": 25,
      "infantCapacity": 25,
      "nurseCount": 3,
      "nurseAidCount": 9
    },
    {
      "id": "김혜정산후조리원_대구광역시_수성구_명덕로_432,_5~8층_(수성동3가)",
      "name": "김혜정산후조리원",
      "address": "대구광역시 수성구 명덕로 432, 5~8층 (수성동3가)",
      "phone": "053)656-0012",
      "lat": 35.8510674,
      "lng": 128.6197062,
      "motherCapacity": 28,
      "infantCapacity": 28,
      "nurseCount": 4,
      "nurseAidCount": 12
    },
    {
      "id": "엘리자벳산후조리원_대구광역시_수성구_무학로_25_(상동)",
      "name": "엘리자벳산후조리원",
      "address": "대구광역시 수성구 무학로 25 (상동)",
      "phone": "",
      "lat": 35.8266637,
      "lng": 128.6136644,
      "motherCapacity": 22,
      "infantCapacity": 23,
      "nurseCount": 3,
      "nurseAidCount": 7
    },
    {
      "id": "본느마망_산후조리원_대구광역시_수성구_수성로38길_33_(중동)",
      "name": "본느마망 산후조리원",
      "address": "대구광역시 수성구 수성로38길 33 (중동)",
      "phone": "053-721-7071",
      "lat": 35.8402609,
      "lng": 128.6156716,
      "motherCapacity": 29,
      "infantCapacity": 29,
      "nurseCount": 5,
      "nurseAidCount": 7
    },
    {
      "id": "노블맘_산후조리원_경기도_안양시_동안구_평촌대로211번길_16,_삼희월드프라자_10층_(호계동)",
      "name": "노블맘 산후조리원",
      "address": "경기도 안양시 동안구 평촌대로211번길 16, 삼희월드프라자 10층 (호계동)",
      "phone": "031-386-1300",
      "lat": 37.3875557,
      "lng": 126.9571277,
      "motherCapacity": 19,
      "infantCapacity": 19,
      "nurseCount": 3,
      "nurseAidCount": 6
    },
    {
      "id": "봄빛병원_부설_산후조리원_2관_경기도_안양시_동안구_시민대로_214_(호계동,_다운타운_9층,_10층)",
      "name": "봄빛병원 부설 산후조리원 2관",
      "address": "경기도 안양시 동안구 시민대로 214 (호계동, 다운타운 9층, 10층)",
      "phone": "031-385-1010",
      "lat": 37.3891047,
      "lng": 126.9568607,
      "motherCapacity": 54,
      "infantCapacity": 54,
      "nurseCount": 8,
      "nurseAidCount": 21
    },
    {
      "id": "봄빛병원부설_산후조리원1관_경기도_안양시_동안구_시민대로_187,_안양건설타워_(비산동)",
      "name": "봄빛병원부설 산후조리원1관",
      "address": "경기도 안양시 동안구 시민대로 187, 안양건설타워 (비산동)",
      "phone": "031-384-1010",
      "lat": 37.3889535,
      "lng": 126.953782,
      "motherCapacity": 35,
      "infantCapacity": 35,
      "nurseCount": 5,
      "nurseAidCount": 12
    },
    {
      "id": "벨라산후조리원_경기도_안양시_만안구_예술공원로_153-32,_2층_(석수동)",
      "name": "벨라산후조리원",
      "address": "경기도 안양시 만안구 예술공원로 153-32, 2층 (석수동)",
      "phone": "031-8068-7788",
      "lat": null,
      "lng": null,
      "motherCapacity": 22,
      "infantCapacity": 22,
      "nurseCount": 4,
      "nurseAidCount": 16
    },
    {
      "id": "알리르마리산후조리원_경기도_용인시_수지구_손곡로_95_(동천동,_송란아트프라자_4,5층)",
      "name": "알리르마리산후조리원",
      "address": "경기도 용인시 수지구 손곡로 95 (동천동, 송란아트프라자 4,5층)",
      "phone": "",
      "lat": 37.333146,
      "lng": 127.0939139,
      "motherCapacity": 21,
      "infantCapacity": 21,
      "nurseCount": 4,
      "nurseAidCount": 5
    },
    {
      "id": "마미맘스산후조리원_경기도_용인시_처인구_금학로_345,_3층,4층,6층_(김량장동)",
      "name": "마미맘스산후조리원",
      "address": "경기도 용인시 처인구 금학로 345, 3층,4층,6층 (김량장동)",
      "phone": "031-323-3510",
      "lat": 37.2342487,
      "lng": 127.2041945,
      "motherCapacity": 14,
      "infantCapacity": 12,
      "nurseCount": 3,
      "nurseAidCount": 5
    },
    {
      "id": "(주)루산후조리원_경기도_용인시_수지구_법조로_242,_3층~5층_(상현동)",
      "name": "(주)루산후조리원",
      "address": "경기도 용인시 수지구 법조로 242, 3층~5층 (상현동)",
      "phone": "031-225-0011",
      "lat": 37.2976498,
      "lng": 127.0767483,
      "motherCapacity": 21,
      "infantCapacity": 21,
      "nurseCount": 3,
      "nurseAidCount": 8
    },
    {
      "id": "루나_산후조리원_동탄점_경기도_용인시_기흥구_서천로202번길_1_(농서동)",
      "name": "루나 산후조리원 동탄점",
      "address": "경기도 용인시 기흥구 서천로202번길 1 (농서동)",
      "phone": "031-548-2705",
      "lat": 37.2274297,
      "lng": 127.0720519,
      "motherCapacity": 14,
      "infantCapacity": 14,
      "nurseCount": 3,
      "nurseAidCount": 3
    },
    {
      "id": "디어맘산후조리원_경기도_안양시_동안구_동편로20번길_28_(관양동)",
      "name": "디어맘산후조리원",
      "address": "경기도 안양시 동안구 동편로20번길 28 (관양동)",
      "phone": "031-422-0081",
      "lat": 37.4025945,
      "lng": 126.9745977,
      "motherCapacity": 11,
      "infantCapacity": 11,
      "nurseCount": 2,
      "nurseAidCount": 5
    },
    {
      "id": "(주)그랑베이산후조리원_경기도_안양시_동안구_흥안대로_125,_동안빌딩_6,_7층_(호계동)",
      "name": "(주)그랑베이산후조리원",
      "address": "경기도 안양시 동안구 흥안대로 125, 동안빌딩 6, 7층 (호계동)",
      "phone": "",
      "lat": 37.3680474,
      "lng": 126.9606687,
      "motherCapacity": 26,
      "infantCapacity": 26,
      "nurseCount": 4,
      "nurseAidCount": 8
    },
    {
      "id": "로얄_산후조리원_경기도_용인시_기흥구_흥덕2로_85_(영덕동,우연프라자5층)",
      "name": "로얄 산후조리원",
      "address": "경기도 용인시 기흥구 흥덕2로 85 (영덕동,우연프라자5층)",
      "phone": "031-211-2288",
      "lat": 37.2722955,
      "lng": 127.0758729,
      "motherCapacity": 16,
      "infantCapacity": 16,
      "nurseCount": 4,
      "nurseAidCount": 5
    },
    {
      "id": "노블엘르산후조리원_경기도_용인시_기흥구_구갈로_70_(구갈동,구갈메가타운_7층)",
      "name": "노블엘르산후조리원",
      "address": "경기도 용인시 기흥구 구갈로 70 (구갈동,구갈메가타운 7층)",
      "phone": "",
      "lat": 37.2777118,
      "lng": 127.1137939,
      "motherCapacity": 21,
      "infantCapacity": 21,
      "nurseCount": 4,
      "nurseAidCount": 5
    },
    {
      "id": "수지미래산후조리원_경기도_용인시_수지구_포은대로313번길_4_(풍덕천동)",
      "name": "수지미래산후조리원",
      "address": "경기도 용인시 수지구 포은대로313번길 4 (풍덕천동)",
      "phone": "",
      "lat": 37.3121925,
      "lng": 127.0884986,
      "motherCapacity": 21,
      "infantCapacity": 21,
      "nurseCount": 4,
      "nurseAidCount": 10
    },
    {
      "id": "주식회사_다온누리산후조리원_경기도_용인시_기흥구_흥덕2로87번길_18_(영덕동)",
      "name": "주식회사 다온누리산후조리원",
      "address": "경기도 용인시 기흥구 흥덕2로87번길 18 (영덕동)",
      "phone": "1566-1641",
      "lat": 37.2729315,
      "lng": 127.0740018,
      "motherCapacity": 28,
      "infantCapacity": 28,
      "nurseCount": 3,
      "nurseAidCount": 12
    },
    {
      "id": "(주)베베포레스트산후조리원용인수지_경기도_용인시_수지구_풍덕천로_149_(풍덕천동)",
      "name": "(주)베베포레스트산후조리원용인수지",
      "address": "경기도 용인시 수지구  풍덕천로  149 (풍덕천동)",
      "phone": "",
      "lat": 37.3217887,
      "lng": 127.0997113,
      "motherCapacity": 22,
      "infantCapacity": 23,
      "nurseCount": 4,
      "nurseAidCount": 4
    },
    {
      "id": "용인제일산후조리원_경기도_용인시_처인구_중부대로_1347,_7,8층_(김량장동)",
      "name": "용인제일산후조리원",
      "address": "경기도 용인시 처인구 중부대로 1347, 7,8층 (김량장동)",
      "phone": "031-8031-0200",
      "lat": 37.2324566,
      "lng": 127.1966795,
      "motherCapacity": 14,
      "infantCapacity": 14,
      "nurseCount": 3,
      "nurseAidCount": 3
    },
    {
      "id": "더미래_산후조리원_경기도_용인시_기흥구_죽전로_2_(보정동,_현타워)",
      "name": "더미래 산후조리원",
      "address": "경기도 용인시 기흥구 죽전로 2 (보정동, 현타워)",
      "phone": "031-897-7988",
      "lat": 37.3173371,
      "lng": 127.1111012,
      "motherCapacity": 17,
      "infantCapacity": 17,
      "nurseCount": 3,
      "nurseAidCount": 4
    },
    {
      "id": "크래들산후조리원_경기도_용인시_기흥구_죽현로80번길_54_(보정동)",
      "name": "크래들산후조리원",
      "address": "경기도 용인시 기흥구 죽현로80번길 54 (보정동)",
      "phone": "",
      "lat": 37.3131692,
      "lng": 127.126324,
      "motherCapacity": 20,
      "infantCapacity": 20,
      "nurseCount": 3,
      "nurseAidCount": 10
    },
    {
      "id": "카렌시아산후조리원_경기도_의정부시_외미로_95_(호원동,하나플라자_7층)",
      "name": "카렌시아산후조리원",
      "address": "경기도 의정부시 외미로 95 (호원동,하나플라자 7층)",
      "phone": "0507-1366-3025",
      "lat": 37.7218156,
      "lng": 127.0480084,
      "motherCapacity": 18,
      "infantCapacity": 18,
      "nurseCount": 4,
      "nurseAidCount": 8
    },
    {
      "id": "우먼피아_산후조리원_민락점_경기도_의정부시_오목로225번길_100,_CY_TOWER_7층_(민락동)",
      "name": "우먼피아 산후조리원 민락점",
      "address": "경기도 의정부시 오목로225번길 100, CY TOWER 7층 (민락동)",
      "phone": "031-853-2030",
      "lat": 37.7439742,
      "lng": 127.0966654,
      "motherCapacity": 13,
      "infantCapacity": 17,
      "nurseCount": 4,
      "nurseAidCount": 10
    },
    {
      "id": "주식회사_맘플러스_산후조리원_경기도_의정부시_신흥로_130,_온누리빌딩_3,4층_(호원동)",
      "name": "주식회사 맘플러스 산후조리원",
      "address": "경기도 의정부시 신흥로 130, 온누리빌딩 3,4층 (호원동)",
      "phone": "031-879-8434",
      "lat": 37.7247565,
      "lng": 127.0460562,
      "motherCapacity": 13,
      "infantCapacity": 17,
      "nurseCount": 4,
      "nurseAidCount": 8
    },
    {
      "id": "우먼피아산후조리원_경기도_의정부시_청사로5번길_8-7,_8,9층_(신곡동)",
      "name": "우먼피아산후조리원",
      "address": "경기도 의정부시 청사로5번길 8-7, 8,9층 (신곡동)",
      "phone": "031-853-6767",
      "lat": 37.7463832,
      "lng": 127.0723761,
      "motherCapacity": 19,
      "infantCapacity": 19,
      "nurseCount": 3,
      "nurseAidCount": 10
    },
    {
      "id": "벨르마망_산후조리원_경기도_의정부시_오목로205번길_22,_위드프라자_2~5층_(민락동)",
      "name": "벨르마망 산후조리원",
      "address": "경기도 의정부시 오목로205번길 22, 위드프라자 2~5층 (민락동)",
      "phone": "031-851-9222",
      "lat": 37.7426433,
      "lng": 127.0997908,
      "motherCapacity": 29,
      "infantCapacity": 32,
      "nurseCount": 3,
      "nurseAidCount": 3
    },
    {
      "id": "더올리비에르_경기도_양주시_평화로1489번길_19-11_(덕계동)",
      "name": "더올리비에르",
      "address": "경기도 양주시 평화로1489번길 19-11 (덕계동)",
      "phone": "031-859-8866",
      "lat": 37.8199757,
      "lng": 127.0506017,
      "motherCapacity": 34,
      "infantCapacity": 34,
      "nurseCount": 5,
      "nurseAidCount": 15
    },
    {
      "id": "그라티아산후조리원_경기도_양주시_고읍남로_6-6,_6층_(광사동,_해동센터럴타워)",
      "name": "그라티아산후조리원",
      "address": "경기도 양주시 고읍남로 6-6, 6층 (광사동, 해동센터럴타워)",
      "phone": "031-856-7790",
      "lat": 37.7934254,
      "lng": 127.0822245,
      "motherCapacity": 18,
      "infantCapacity": 19,
      "nurseCount": 3,
      "nurseAidCount": 6
    },
    {
      "id": "쉼_산후조리원_경기도_파주시_경의로_1114_(야당동,_에펠타워_7층전부,_805호)",
      "name": "쉼 산후조리원",
      "address": "경기도 파주시 경의로 1114 (야당동, 에펠타워 7층전부, 805호)",
      "phone": "031-947-9030",
      "lat": 37.7138484,
      "lng": 126.7624722,
      "motherCapacity": 16,
      "infantCapacity": 20,
      "nurseCount": 2,
      "nurseAidCount": 3
    },
    {
      "id": "아르테미스_산후조리원_경기도_포천시_소흘읍_솔모루로_55,_뉴스토리솔모루",
      "name": "아르테미스 산후조리원",
      "address": "경기도 포천시 소흘읍 솔모루로 55, 뉴스토리솔모루",
      "phone": "",
      "lat": 37.8245822,
      "lng": 127.1467255,
      "motherCapacity": 17,
      "infantCapacity": 17,
      "nurseCount": 3,
      "nurseAidCount": 4
    },
    {
      "id": "뉴아모르_산후조리원_경기도_파주시_와석순환로_133,_형성프라자_4층_(동패동)",
      "name": "뉴아모르 산후조리원",
      "address": "경기도 파주시 와석순환로 133, 형성프라자 4층 (동패동)",
      "phone": "",
      "lat": 37.7093316,
      "lng": 126.7469872,
      "motherCapacity": 27,
      "infantCapacity": 27,
      "nurseCount": 3,
      "nurseAidCount": 5
    },
    {
      "id": "라벨팜므_산후조리원_경기도_파주시_경의로_1100,_5층_(야당동)",
      "name": "라벨팜므 산후조리원",
      "address": "경기도 파주시 경의로 1100, 5층 (야당동)",
      "phone": "031-942-3535",
      "lat": 37.7125594,
      "lng": 126.7622263,
      "motherCapacity": 19,
      "infantCapacity": 19,
      "nurseCount": 3,
      "nurseAidCount": 6
    },
    {
      "id": "전라남도_공공산후조리원_3호점_전라남도_완도군_완도읍_청해진동로_63",
      "name": "전라남도 공공산후조리원 3호점",
      "address": "전라남도 완도군 완도읍 청해진동로 63",
      "phone": "061-553-1234",
      "lat": 34.3139852,
      "lng": 126.7376744,
      "motherCapacity": 10,
      "infantCapacity": 12,
      "nurseCount": 4,
      "nurseAidCount": 4
    },
    {
      "id": "스위트나리산후조리원_경기도_김포시_돌문로_99,_나리병원_(사우동)",
      "name": "스위트나리산후조리원",
      "address": "경기도 김포시 돌문로 99, 나리병원 (사우동)",
      "phone": "031-982-5700",
      "lat": 37.6191734,
      "lng": 126.7148137,
      "motherCapacity": 26,
      "infantCapacity": 30,
      "nurseCount": 3,
      "nurseAidCount": 12
    },
    {
      "id": "한아름산후조리원_서울특별시_강남구_논현로_98,_문화빌딩_5,6층_(개포동)",
      "name": "한아름산후조리원",
      "address": "서울특별시 강남구 논현로 98, 문화빌딩 5,6층 (개포동)",
      "phone": "02-3412-0101",
      "lat": 37.4758661,
      "lng": 127.0468698,
      "motherCapacity": 16,
      "infantCapacity": 16,
      "nurseCount": 4,
      "nurseAidCount": 8
    },
    {
      "id": "제주_메종포레_산후조리원_제주특별자치도_제주시_서광로_83,_예나빌딩_4층_(용담이동)",
      "name": "제주 메종포레 산후조리원",
      "address": "제주특별자치도 제주시 서광로 83, 예나빌딩 4층 (용담이동)",
      "phone": "064-759-7838",
      "lat": 33.4974637,
      "lng": 126.507015,
      "motherCapacity": 6,
      "infantCapacity": 6,
      "nurseCount": 2,
      "nurseAidCount": 3
    },
    {
      "id": "유니티_경기도_파주시_책향기로_836_(와동동)",
      "name": "유니티",
      "address": "경기도 파주시 책향기로 836 (와동동)",
      "phone": "031-943-6272",
      "lat": 37.726483,
      "lng": 126.7658439,
      "motherCapacity": 21,
      "infantCapacity": 21,
      "nurseCount": 3,
      "nurseAidCount": 9
    },
    {
      "id": "전라남도_공공산후조리원_5호점_전라남도_순천시_장선배기1길_8,_현대병원_(조례동)",
      "name": "전라남도 공공산후조리원 5호점",
      "address": "전라남도 순천시 장선배기1길 8, 현대병원 (조례동)",
      "phone": "061-729-8681",
      "lat": 34.9502996,
      "lng": 127.5247268,
      "motherCapacity": 10,
      "infantCapacity": 10,
      "nurseCount": 2,
      "nurseAidCount": 2
    },
    {
      "id": "미즈산후조리원_강원특별자치도_원주시_이화6길_1_(단계동)",
      "name": "미즈산후조리원",
      "address": "강원특별자치도 원주시 이화6길 1 (단계동)",
      "phone": "033-733-3537",
      "lat": 37.3406959,
      "lng": 127.934742,
      "motherCapacity": 26,
      "infantCapacity": 28,
      "nurseCount": 4,
      "nurseAidCount": 10
    },
    {
      "id": "율산후조리원_강원특별자치도_원주시_능라동길_61_(무실동)",
      "name": "율산후조리원",
      "address": "강원특별자치도 원주시 능라동길 61 (무실동)",
      "phone": "033-734-5605",
      "lat": 37.3313213,
      "lng": 127.9334113,
      "motherCapacity": 18,
      "infantCapacity": 18,
      "nurseCount": 3,
      "nurseAidCount": 12
    },
    {
      "id": "연세순풍산후조리원_강원특별자치도_원주시_장미공원길_43-6,_5층_(단계동,_송정빌딩)",
      "name": "연세순풍산후조리원",
      "address": "강원특별자치도 원주시 장미공원길 43-6, 5층 (단계동, 송정빌딩)",
      "phone": "033-745-7020",
      "lat": 37.3437354,
      "lng": 127.9323418,
      "motherCapacity": 18,
      "infantCapacity": 18,
      "nurseCount": 3,
      "nurseAidCount": 9
    },
    {
      "id": "다올산후조리원_강원특별자치도_원주시_서원대로_402,_대신프라자_6층_(단구동)",
      "name": "다올산후조리원",
      "address": "강원특별자치도 원주시 서원대로 402, 대신프라자 6층 (단구동)",
      "phone": "033-765-7900",
      "lat": 37.3276521,
      "lng": 127.9514575,
      "motherCapacity": 44,
      "infantCapacity": 44,
      "nurseCount": 3,
      "nurseAidCount": 4
    },
    {
      "id": "주식회사_프리티가든_산후조리원_강원특별자치도_원주시_영랑길_14-2,_청연재빌딩_5,8,9층_(행구동)",
      "name": "주식회사 프리티가든 산후조리원",
      "address": "강원특별자치도 원주시 영랑길 14-2, 청연재빌딩 5,8,9층 (행구동)",
      "phone": "033-901-5959",
      "lat": 37.3381721,
      "lng": 127.9738924,
      "motherCapacity": 19,
      "infantCapacity": 19,
      "nurseCount": 3,
      "nurseAidCount": 6
    },
    {
      "id": "세가온산후조리원_강원특별자치도_강릉시_율곡로_2982-6_(교동)",
      "name": "세가온산후조리원",
      "address": "강원특별자치도 강릉시 율곡로 2982-6 (교동)",
      "phone": "033)643-8114",
      "lat": 37.7654462,
      "lng": 128.8947098,
      "motherCapacity": 18,
      "infantCapacity": 18,
      "nurseCount": 3,
      "nurseAidCount": 10
    },
    {
      "id": "아이앤맘산후조리원_강원특별자치도_강릉시_옥가로_21_(옥천동)",
      "name": "아이앤맘산후조리원",
      "address": "강원특별자치도 강릉시 옥가로 21 (옥천동)",
      "phone": "",
      "lat": 37.7555978,
      "lng": 128.9012023,
      "motherCapacity": 12,
      "infantCapacity": 12,
      "nurseCount": 2,
      "nurseAidCount": 5
    },
    {
      "id": "(주)미래산후조리원_강원특별자치도_춘천시_중앙로_116_(소양로4가)",
      "name": "(주)미래산후조리원",
      "address": "강원특별자치도 춘천시 중앙로 116 (소양로4가)",
      "phone": "033-241-7677",
      "lat": 37.8739783,
      "lng": 127.7244028,
      "motherCapacity": 16,
      "infantCapacity": 16,
      "nurseCount": 3,
      "nurseAidCount": 5
    },
    {
      "id": "아름다운_산후조리원_강원특별자치도_춘천시_터미널길_21_(온의동)",
      "name": "아름다운 산후조리원",
      "address": "강원특별자치도 춘천시 터미널길 21 (온의동)",
      "phone": "033-241-7400",
      "lat": 37.8616284,
      "lng": 127.7212548,
      "motherCapacity": 6,
      "infantCapacity": 6,
      "nurseCount": 2,
      "nurseAidCount": 9
    },
    {
      "id": "호산후조리원_강원특별자치도_춘천시_퇴계로_188,_6층~7층층_(석사동)",
      "name": "호산후조리원",
      "address": "강원특별자치도 춘천시 퇴계로 188, 6층~7층층 (석사동)",
      "phone": "033-264-1700",
      "lat": 37.8543838,
      "lng": 127.7415115,
      "motherCapacity": 22,
      "infantCapacity": 22,
      "nurseCount": 3,
      "nurseAidCount": 11
    },
    {
      "id": "행복누리산후조리원_강원특별자치도_강릉시_경강로_2109_(임당동)",
      "name": "행복누리산후조리원",
      "address": "강원특별자치도 강릉시 경강로 2109 (임당동)",
      "phone": "033-641-6680",
      "lat": 37.7530614,
      "lng": 128.8993093,
      "motherCapacity": 7,
      "infantCapacity": 12,
      "nurseCount": 3,
      "nurseAidCount": 3
    },
    {
      "id": "철원군공공산후조리원_강원특별자치도_철원군_갈말읍_명성로_202-9,_철원군공공산후조리원",
      "name": "철원군공공산후조리원",
      "address": "강원특별자치도 철원군 갈말읍 명성로 202-9, 철원군공공산후조리원",
      "phone": "",
      "lat": 38.1470914,
      "lng": 127.3100562,
      "motherCapacity": 10,
      "infantCapacity": 10,
      "nurseCount": 3,
      "nurseAidCount": 4
    },
    {
      "id": "화천군공공산후조리원_강원특별자치도_화천군_화천읍_강변로_111",
      "name": "화천군공공산후조리원",
      "address": "강원특별자치도 화천군 화천읍 강변로 111",
      "phone": "",
      "lat": 38.1048334,
      "lng": 127.7113192,
      "motherCapacity": 5,
      "infantCapacity": 6,
      "nurseCount": 5,
      "nurseAidCount": 5
    },
    {
      "id": "로즈맘산후조리원_경상남도_창원시_의창구_평산로_96,_웰빙프라자_3층_308호_(팔용동)",
      "name": "로즈맘산후조리원",
      "address": "경상남도 창원시 의창구 평산로 96, 웰빙프라자 3층 308호 (팔용동)",
      "phone": "055-713-3588",
      "lat": 35.2485379,
      "lng": 128.621974,
      "motherCapacity": 5,
      "infantCapacity": 5,
      "nurseCount": 2,
      "nurseAidCount": 3
    },
    {
      "id": "미래아이굿맘스_산후조리원_서울특별시_강서구_양천로_588,_2~4층_(등촌동)",
      "name": "미래아이굿맘스 산후조리원",
      "address": "서울특별시 강서구 양천로 588, 2~4층 (등촌동)",
      "phone": "02-2659-2026",
      "lat": 37.553313,
      "lng": 126.8658348,
      "motherCapacity": 19,
      "infantCapacity": 22,
      "nurseCount": 3,
      "nurseAidCount": 6
    },
    {
      "id": "분당제일산후조리원_2관_경기도_성남시_분당구_황새울로_321,_비지니스호텔갤러리_3층_(서현동)",
      "name": "분당제일산후조리원 2관",
      "address": "경기도 성남시 분당구 황새울로 321, 비지니스호텔갤러리 3층 (서현동)",
      "phone": "031-703-1004",
      "lat": 37.382505,
      "lng": 127.1231917,
      "motherCapacity": 17,
      "infantCapacity": 18,
      "nurseCount": 5,
      "nurseAidCount": 14
    },
    {
      "id": "노블5_산후조리원_서울특별시_강남구_삼성로115길_20-10,_노블5_산후조리원_1~4층_(삼성동)",
      "name": "노블5 산후조리원",
      "address": "서울특별시 강남구 삼성로115길 20-10, 노블5 산후조리원 1~4층 (삼성동)",
      "phone": "02-517-2419",
      "lat": 37.5122896,
      "lng": 127.0523667,
      "motherCapacity": 4,
      "infantCapacity": 5,
      "nurseCount": 5,
      "nurseAidCount": 0
    },
    {
      "id": "미즈산후조리원_광주광역시_서구_시청로_17,_6~7층_(치평동)",
      "name": "미즈산후조리원",
      "address": "광주광역시 서구 시청로 17, 6~7층 (치평동)",
      "phone": "062-720-9000,9014",
      "lat": 35.1469819,
      "lng": 126.8532533,
      "motherCapacity": 29,
      "infantCapacity": 32,
      "nurseCount": 5,
      "nurseAidCount": 14
    },
    {
      "id": "해피맘산후조리원_경상북도_구미시_신시로_74_(형곡동)",
      "name": "해피맘산후조리원",
      "address": "경상북도 구미시 신시로 74 (형곡동)",
      "phone": "458-0119",
      "lat": 36.1114623,
      "lng": 128.3418668,
      "motherCapacity": 15,
      "infantCapacity": 15,
      "nurseCount": 3,
      "nurseAidCount": 4
    },
    {
      "id": "맘존산후조리원_경상북도_경주시_원화로_315,_5층_(성동동)",
      "name": "맘존산후조리원",
      "address": "경상북도 경주시 원화로 315, 5층 (성동동)",
      "phone": "",
      "lat": 35.8458648,
      "lng": 129.2191053,
      "motherCapacity": 12,
      "infantCapacity": 12,
      "nurseCount": "",
      "nurseAidCount": ""
    },
    {
      "id": "퀸스베이비산후조리원_경상북도_구미시_송원서로6길_19-1_(원평동)",
      "name": "퀸스베이비산후조리원",
      "address": "경상북도 구미시 송원서로6길 19-1 (원평동)",
      "phone": "443-5755",
      "lat": 36.1217044,
      "lng": 128.3480318,
      "motherCapacity": 24,
      "infantCapacity": 25,
      "nurseCount": 3,
      "nurseAidCount": 9
    },
    {
      "id": "허브하우스산후조리원_경상북도_칠곡군_북삼읍_북삼로2길_56",
      "name": "허브하우스산후조리원",
      "address": "경상북도 칠곡군 북삼읍 북삼로2길 56",
      "phone": 549764141,
      "lat": 36.0721966,
      "lng": 128.3425276,
      "motherCapacity": 30,
      "infantCapacity": 30,
      "nurseCount": 3,
      "nurseAidCount": 3
    },
    {
      "id": "새봄산후조리원_경상북도_구미시_송원서로_94_(원평동)",
      "name": "새봄산후조리원",
      "address": "경상북도 구미시 송원서로 94 (원평동)",
      "phone": "054-457-6100",
      "lat": 36.1226736,
      "lng": 128.3468243,
      "motherCapacity": 20,
      "infantCapacity": 20,
      "nurseCount": 1,
      "nurseAidCount": 8
    },
    {
      "id": "그린나래산후조리원_경상북도_구미시_산호대로24길_9-45,_5-6층_(옥계동)",
      "name": "그린나래산후조리원",
      "address": "경상북도 구미시 산호대로24길 9-45, 5-6층 (옥계동)",
      "phone": "476-8008",
      "lat": 36.1332969,
      "lng": 128.418955,
      "motherCapacity": 19,
      "infantCapacity": 19,
      "nurseCount": 3,
      "nurseAidCount": 7
    },
    {
      "id": "맘스_산후조리원_울산광역시_중구_남외2길_36_(남외동)",
      "name": "맘스 산후조리원",
      "address": "울산광역시 중구 남외2길 36 (남외동)",
      "phone": "052-290-6000",
      "lat": 35.5637969,
      "lng": 129.3531614,
      "motherCapacity": 27,
      "infantCapacity": 27,
      "nurseCount": 4,
      "nurseAidCount": 11
    },
    {
      "id": "피오레산후조리원_울산광역시_중구_종가로_310,_10층_(우정동)",
      "name": "피오레산후조리원",
      "address": "울산광역시 중구 종가로 310, 10층 (우정동)",
      "phone": "052-260-6011",
      "lat": 35.5607403,
      "lng": 129.3131331,
      "motherCapacity": 21,
      "infantCapacity": 21,
      "nurseCount": 2,
      "nurseAidCount": 4
    },
    {
      "id": "우리산후조리원_인천광역시_연수구_앵고개로_260,_맘모스빌딩_7층_(동춘동)",
      "name": "우리산후조리원",
      "address": "인천광역시 연수구 앵고개로 260, 맘모스빌딩 7층 (동춘동)",
      "phone": "032-816-5464",
      "lat": 37.4049156,
      "lng": 126.6743008,
      "motherCapacity": 17,
      "infantCapacity": 17,
      "nurseCount": 2,
      "nurseAidCount": 8
    },
    {
      "id": "와이산후조리원_연수점_인천광역시_연수구_먼우금로_189,_소망글로벌_6층_(청학동)",
      "name": "와이산후조리원 연수점",
      "address": "인천광역시 연수구 먼우금로 189, 소망글로벌 6층 (청학동)",
      "phone": "032-246-0101",
      "lat": 37.4118168,
      "lng": 126.6779465,
      "motherCapacity": 12,
      "infantCapacity": 12,
      "nurseCount": 3,
      "nurseAidCount": 5
    },
    {
      "id": "맘편한산후조리원_제주특별자치도_제주시_1100로_3283,_2층_(노형동,_영화빌딩)",
      "name": "맘편한산후조리원",
      "address": "제주특별자치도 제주시 1100로 3283, 2층 (노형동, 영화빌딩)",
      "phone": "064-711-3080",
      "lat": 33.4761439,
      "lng": 126.4838186,
      "motherCapacity": 11,
      "infantCapacity": 11,
      "nurseCount": 3,
      "nurseAidCount": 9
    },
    {
      "id": "메종포레산후조리원(주)_제주특별자치도_제주시_서광로_83,_예나빌딩_3층_(용담이동)",
      "name": "메종포레산후조리원(주)",
      "address": "제주특별자치도 제주시 서광로 83, 예나빌딩 3층 (용담이동)",
      "phone": "064-712-8279",
      "lat": 33.4974637,
      "lng": 126.507015,
      "motherCapacity": 12,
      "infantCapacity": 12,
      "nurseCount": 2,
      "nurseAidCount": 8
    },
    {
      "id": "프라임산후조리원_제주특별자치도_제주시_오남로_82_(오라이동)",
      "name": "프라임산후조리원",
      "address": "제주특별자치도 제주시 오남로 82 (오라이동)",
      "phone": "064-702-1155",
      "lat": 33.4852589,
      "lng": 126.5199086,
      "motherCapacity": 20,
      "infantCapacity": 20,
      "nurseCount": 4,
      "nurseAidCount": 8
    },
    {
      "id": "제주특별자치도_서귀포의료원_부설_산후조리원_제주특별자치도_서귀포시_장수로_47_(동홍동,_서귀포의료원)",
      "name": "제주특별자치도 서귀포의료원 부설 산후조리원",
      "address": "제주특별자치도 서귀포시 장수로 47 (동홍동, 서귀포의료원)",
      "phone": "064-730-3654",
      "lat": 33.2526212,
      "lng": 126.5658509,
      "motherCapacity": 13,
      "infantCapacity": 13,
      "nurseCount": 4,
      "nurseAidCount": 0
    },
    {
      "id": "서귀포공공산후조리원_제주특별자치도_서귀포시_중앙로_125_(서홍동)",
      "name": "서귀포공공산후조리원",
      "address": "제주특별자치도 서귀포시 중앙로 125 (서홍동)",
      "phone": "064-763-0458",
      "lat": 33.2526123,
      "lng": 126.562208,
      "motherCapacity": 11,
      "infantCapacity": 11,
      "nurseCount": 2,
      "nurseAidCount": 4
    },
    {
      "id": "퀸즈힐산후조리원_부산광역시_해운대구_해운대로_794,_엘리움_13층_(좌동)",
      "name": "퀸즈힐산후조리원",
      "address": "부산광역시 해운대구 해운대로 794, 엘리움 13층 (좌동)",
      "phone": "051-715-5150",
      "lat": 35.1657284,
      "lng": 129.1780279,
      "motherCapacity": 17,
      "infantCapacity": 17,
      "nurseCount": 4,
      "nurseAidCount": 8
    },
    {
      "id": "와이즈산후조리원_경기도_파주시_금바위로_50,_8층_(와동동)",
      "name": "와이즈산후조리원",
      "address": "경기도 파주시 금바위로 50, 8층 (와동동)",
      "phone": "",
      "lat": 37.7262397,
      "lng": 126.7609086,
      "motherCapacity": 28,
      "infantCapacity": 40,
      "nurseCount": 0,
      "nurseAidCount": 0
    },
    {
      "id": "더은혜산후조리원_서울특별시_은평구_진흥로_133,_A동_(대조동)",
      "name": "더은혜산후조리원",
      "address": "서울특별시 은평구 진흥로 133, A동 (대조동)",
      "phone": "02-388-5638",
      "lat": 37.6053689,
      "lng": 126.9268338,
      "motherCapacity": 21,
      "infantCapacity": 21,
      "nurseCount": 3,
      "nurseAidCount": 7
    },
    {
      "id": "마리아산후조리원_서울특별시_성북구_화랑로_248,_장위뉴타워_8층_(석관동)",
      "name": "마리아산후조리원",
      "address": "서울특별시 성북구 화랑로 248, 장위뉴타워 8층 (석관동)",
      "phone": "02-2088-7387",
      "lat": 37.6075171,
      "lng": 127.059052,
      "motherCapacity": 18,
      "infantCapacity": 18,
      "nurseCount": 5,
      "nurseAidCount": 9
    },
    {
      "id": "명희산후조리원_강원특별자치도_삼척시_남양동_6번지",
      "name": "명희산후조리원",
      "address": "강원특별자치도 삼척시 남양동 6번지",
      "phone": "",
      "lat": null,
      "lng": null,
      "motherCapacity": 1,
      "infantCapacity": 1,
      "nurseCount": 0,
      "nurseAidCount": 0
    },
    {
      "id": "글로리아산후조리원_강원특별자치도_동해시_천곡로_86-2_(천곡동,_대륜빌딩)",
      "name": "글로리아산후조리원",
      "address": "강원특별자치도 동해시 천곡로 86-2 (천곡동, 대륜빌딩)",
      "phone": "033-532-0050",
      "lat": 37.5200503,
      "lng": 129.1173489,
      "motherCapacity": 15,
      "infantCapacity": 10,
      "nurseCount": 2,
      "nurseAidCount": 2
    },
    {
      "id": "아이맘산후조리원_강원특별자치도_동해시_한섬로_113-7_(천곡동)",
      "name": "아이맘산후조리원",
      "address": "강원특별자치도 동해시 한섬로 113-7 (천곡동)",
      "phone": "033-532-8082",
      "lat": 37.5195071,
      "lng": 129.1182649,
      "motherCapacity": 0,
      "infantCapacity": 0,
      "nurseCount": 2,
      "nurseAidCount": 5
    },
    {
      "id": "양구군_공공산후조리원_강원특별자치도_양구군_양구읍_중심로_152-64",
      "name": "양구군 공공산후조리원",
      "address": "강원특별자치도 양구군 양구읍 중심로 152-64",
      "phone": "033-482-2995",
      "lat": 38.1020626,
      "lng": 127.9948784,
      "motherCapacity": 8,
      "infantCapacity": 8,
      "nurseCount": 3,
      "nurseAidCount": 2
    },
    {
      "id": "test_강원특별자치도_태백시_바람부리길_221,_1동_1호_(황지동,1)",
      "name": "test",
      "address": "강원특별자치도 태백시 바람부리길 221, 1동 1호 (황지동,1)",
      "phone": "",
      "lat": 37.1794249,
      "lng": 128.9980155,
      "motherCapacity": 1,
      "infantCapacity": 1,
      "nurseCount": 1,
      "nurseAidCount": 1
    },
    {
      "id": "에끌라마마_산후조리원_경기도_고양시_덕양구_고양대로_2002,_은엽빌딩_2,3층_(동산동)",
      "name": "에끌라마마 산후조리원",
      "address": "경기도 고양시 덕양구 고양대로 2002, 은엽빌딩 2,3층 (동산동)",
      "phone": "02-3157-2100",
      "lat": 37.6438719,
      "lng": 126.9033889,
      "motherCapacity": 19,
      "infantCapacity": 19,
      "nurseCount": 4,
      "nurseAidCount": 11
    },
    {
      "id": "디어원_산후조리원_서울특별시_강서구_강서로47길_20_(내발산동)",
      "name": "디어원 산후조리원",
      "address": "서울특별시 강서구 강서로47길 20 (내발산동)",
      "phone": "02-1833-4720",
      "lat": 37.5500751,
      "lng": 126.8371899,
      "motherCapacity": 37,
      "infantCapacity": 39,
      "nurseCount": 4,
      "nurseAidCount": 6
    },
    {
      "id": "곽생로_산후조리원_인천광역시_연수구_하모니로_124,_4층_(송도동)",
      "name": "곽생로 산후조리원",
      "address": "인천광역시 연수구 하모니로 124, 4층 (송도동)",
      "phone": "032-819-7117",
      "lat": 37.3828029,
      "lng": 126.6471556,
      "motherCapacity": 25,
      "infantCapacity": 28,
      "nurseCount": 4,
      "nurseAidCount": 6
    },
    {
      "id": "헤일로즈산후조리원_전북특별자치도_전주시_완산구_영선로_7-50_(중화산동2가)",
      "name": "헤일로즈산후조리원",
      "address": "전북특별자치도 전주시 완산구 영선로 7-50 (중화산동2가)",
      "phone": "063-237-3455",
      "lat": 35.8216791,
      "lng": 127.1258602,
      "motherCapacity": 21,
      "infantCapacity": 21,
      "nurseCount": 4,
      "nurseAidCount": 4
    },
    {
      "id": "한아름산후조리원_경상남도_양산시_물금읍_범구로_27,_8,9,11층",
      "name": "한아름산후조리원",
      "address": "경상남도 양산시 물금읍 범구로 27, 8,9,11층",
      "phone": 553850366,
      "lat": 35.3241356,
      "lng": 129.0167796,
      "motherCapacity": 29,
      "infantCapacity": 30,
      "nurseCount": 3,
      "nurseAidCount": 6
    },
    {
      "id": "광안자모병원_산후조리원_부산광역시_수영구_수영로_555_(광안동)",
      "name": "광안자모병원 산후조리원",
      "address": "부산광역시 수영구 수영로 555 (광안동)",
      "phone": "760-0600",
      "lat": 35.152248,
      "lng": 129.1145615,
      "motherCapacity": 35,
      "infantCapacity": 43,
      "nurseCount": 5,
      "nurseAidCount": 13
    },
    {
      "id": "아이앤젤산후조리원_부산광역시_기장군_정관읍_정관로_601,_5층_(대신빌딩)",
      "name": "아이앤젤산후조리원",
      "address": "부산광역시 기장군 정관읍 정관로 601, 5층 (대신빌딩)",
      "phone": "051-997-3579",
      "lat": 35.3173834,
      "lng": 129.1819125,
      "motherCapacity": 19,
      "infantCapacity": 19,
      "nurseCount": 3,
      "nurseAidCount": 5
    },
    {
      "id": "르보아_산후조리원_울산광역시_남구_대공원로_241_(신정동)",
      "name": "르보아 산후조리원",
      "address": "울산광역시 남구 대공원로 241 (신정동)",
      "phone": "256-1052",
      "lat": 35.5279696,
      "lng": 129.3095686,
      "motherCapacity": 10,
      "infantCapacity": 10,
      "nurseCount": 2,
      "nurseAidCount": 5
    },
    {
      "id": "보람병원_산후조리원_울산광역시_남구_돋질로332번길_12_(삼산동,_의료법인인석의료재단)",
      "name": "보람병원 산후조리원",
      "address": "울산광역시 남구 돋질로332번길 12 (삼산동, 의료법인인석의료재단)",
      "phone": "052-278-0144",
      "lat": 35.5396275,
      "lng": 129.3427274,
      "motherCapacity": 32,
      "infantCapacity": 32,
      "nurseCount": 10,
      "nurseAidCount": 14
    },
    {
      "id": "로즈메디산후조리원_울산광역시_동구_방어진순환도로_747_(전하동)",
      "name": "로즈메디산후조리원",
      "address": "울산광역시 동구 방어진순환도로 747 (전하동)",
      "phone": "052-234-3575",
      "lat": 35.5053781,
      "lng": 129.4321207,
      "motherCapacity": 8,
      "infantCapacity": 8,
      "nurseCount": 4,
      "nurseAidCount": 4
    },
    {
      "id": "아이미즈산후조리원_인천광역시_미추홀구_경원대로_890_(주안동,보미리즌빌_3층)",
      "name": "아이미즈산후조리원",
      "address": "인천광역시 미추홀구 경원대로 890  (주안동,보미리즌빌 3층)",
      "phone": "435-3575",
      "lat": 37.4593576,
      "lng": 126.6923363,
      "motherCapacity": 20,
      "infantCapacity": 20,
      "nurseCount": 3,
      "nurseAidCount": 8
    },
    {
      "id": "아이소망_산후조리원_인천광역시_미추홀구_미추로_56,_3,4층_(숭의동)",
      "name": "아이소망 산후조리원",
      "address": "인천광역시 미추홀구 미추로 56, 3,4층 (숭의동)",
      "phone": "032-883-3634",
      "lat": 37.4621609,
      "lng": 126.6482236,
      "motherCapacity": 10,
      "infantCapacity": 10,
      "nurseCount": 2,
      "nurseAidCount": 4
    },
    {
      "id": "아이미즈산후조리원_인천광역시_남동구_호구포로_836_(구월동)",
      "name": "아이미즈산후조리원",
      "address": "인천광역시 남동구 호구포로 836 (구월동)",
      "phone": "469-1255",
      "lat": 37.4541006,
      "lng": 126.7220339,
      "motherCapacity": 14,
      "infantCapacity": 14,
      "nurseCount": 3,
      "nurseAidCount": 7
    },
    {
      "id": "마이비산후조리원_인천광역시_남동구_논고개로123번길_17_(논현동,_아이플렉스)",
      "name": "마이비산후조리원",
      "address": "인천광역시 남동구 논고개로123번길 17 (논현동, 아이플렉스)",
      "phone": 324247007,
      "lat": 37.3988708,
      "lng": 126.725162,
      "motherCapacity": 14,
      "infantCapacity": 15,
      "nurseCount": 3,
      "nurseAidCount": 14
    },
    {
      "id": "Y_산후조리원_인천광역시_남동구_논고개로_77_(논현동,_에코타워)",
      "name": "Y 산후조리원",
      "address": "인천광역시 남동구 논고개로 77 (논현동, 에코타워)",
      "phone": "441-5599",
      "lat": 37.3956079,
      "lng": 126.7283324,
      "motherCapacity": 17,
      "infantCapacity": 17,
      "nurseCount": 3,
      "nurseAidCount": 3
    },
    {
      "id": "리앤아이산후조리원_인천광역시_남동구_논고개로_71,_가산타워_5-6층_(논현동)",
      "name": "리앤아이산후조리원",
      "address": "인천광역시 남동구 논고개로 71, 가산타워 5-6층 (논현동)",
      "phone": "",
      "lat": 37.3952087,
      "lng": 126.7289024,
      "motherCapacity": 18,
      "infantCapacity": 18,
      "nurseCount": 3,
      "nurseAidCount": 7
    },
    {
      "id": "의료법인아인의료재단_아인산후조리원_인천광역시_미추홀구_경인로_372_(주안동,_포레나_미추홀)",
      "name": "의료법인아인의료재단 아인산후조리원",
      "address": "인천광역시 미추홀구 경인로 372 (주안동, 포레나 미추홀)",
      "phone": "426-3005",
      "lat": null,
      "lng": null,
      "motherCapacity": 105,
      "infantCapacity": 105,
      "nurseCount": 10,
      "nurseAidCount": 63
    },
    {
      "id": "W(더블유)산후조리원_인천광역시_미추홀구_인주대로_400,_W(더블유)여성병원_6,8~11층_(주안동)",
      "name": "W(더블유)산후조리원",
      "address": "인천광역시 미추홀구 인주대로 400, W(더블유)여성병원 6,8~11층 (주안동)",
      "phone": "032-341-3535",
      "lat": 37.4482029,
      "lng": 126.6829209,
      "motherCapacity": 38,
      "infantCapacity": 38,
      "nurseCount": 5,
      "nurseAidCount": 13
    },
    {
      "id": "고은산후조리원_인천광역시_미추홀구_독배로_463,_고은여성병원_1동_7,8층_(숭의동)",
      "name": "고은산후조리원",
      "address": "인천광역시 미추홀구 독배로 463, 고은여성병원 1동 7,8층 (숭의동)",
      "phone": "",
      "lat": 37.4572677,
      "lng": 126.6491973,
      "motherCapacity": 19,
      "infantCapacity": 19,
      "nurseCount": 2,
      "nurseAidCount": 7
    },
    {
      "id": "새봄산후조리원_인천광역시_부평구_마장로_320_(산곡동,_한화프라자)",
      "name": "새봄산후조리원",
      "address": "인천광역시 부평구 마장로 320 (산곡동, 한화프라자)",
      "phone": "032)507-7200",
      "lat": 37.5039479,
      "lng": 126.7058331,
      "motherCapacity": 36,
      "infantCapacity": 36,
      "nurseCount": 4,
      "nurseAidCount": 20
    },
    {
      "id": "성모산후조리원_인천광역시_부평구_부평대로_66,_4-5층_(부평동)",
      "name": "성모산후조리원",
      "address": "인천광역시 부평구 부평대로 66, 4-5층 (부평동)",
      "phone": "032)330-7502",
      "lat": 37.4945157,
      "lng": 126.7249328,
      "motherCapacity": 17,
      "infantCapacity": 17,
      "nurseCount": 3,
      "nurseAidCount": 3
    },
    {
      "id": "뉴마더맘_산후조리원_인천광역시_서구_길주로_79,_성한캐슬_901호_(석남동)",
      "name": "뉴마더맘 산후조리원",
      "address": "인천광역시 서구 길주로 79, 성한캐슬 901호 (석남동)",
      "phone": "032-577-9990",
      "lat": 37.503899,
      "lng": 126.6731221,
      "motherCapacity": 19,
      "infantCapacity": 19,
      "nurseCount": 2,
      "nurseAidCount": 3
    },
    {
      "id": "그린산후조리원_인천광역시_서구_건지로_371,_그린산부인과_5~6층_(가좌동)",
      "name": "그린산후조리원",
      "address": "인천광역시 서구 건지로 371, 그린산부인과 5~6층 (가좌동)",
      "phone": "032-574-3661",
      "lat": 37.4941465,
      "lng": 126.6852141,
      "motherCapacity": 14,
      "infantCapacity": 14,
      "nurseCount": 3,
      "nurseAidCount": 6
    },
    {
      "id": "마리아산후조리원_인천광역시_서구_가정로_358,_마리아산부인과_6층_(가정동)",
      "name": "마리아산후조리원",
      "address": "인천광역시 서구 가정로 358, 마리아산부인과 6층 (가정동)",
      "phone": "032-571-5667",
      "lat": 37.5139118,
      "lng": 126.6752254,
      "motherCapacity": 12,
      "infantCapacity": 12,
      "nurseCount": 2,
      "nurseAidCount": 5
    },
    {
      "id": "크리스탈산후조리원_인천광역시_서구_크리스탈로_84_(경서동,_레이크가든_4층)",
      "name": "크리스탈산후조리원",
      "address": "인천광역시 서구 크리스탈로 84 (경서동, 레이크가든 4층)",
      "phone": "032-584-3535",
      "lat": 37.5297054,
      "lng": 126.6390093,
      "motherCapacity": 22,
      "infantCapacity": 22,
      "nurseCount": 2,
      "nurseAidCount": 3
    },
    {
      "id": "탑산후조리원_인천광역시_서구_청마로51번안길_22,_3,4층_(당하동)",
      "name": "탑산후조리원",
      "address": "인천광역시 서구 청마로51번안길 22, 3,4층 (당하동)",
      "phone": "",
      "lat": 37.5892546,
      "lng": 126.6744311,
      "motherCapacity": 16,
      "infantCapacity": 16,
      "nurseCount": 3,
      "nurseAidCount": 3
    },
    {
      "id": "청라산후조리원_인천광역시_서구_중봉대로_602_(연희동)",
      "name": "청라산후조리원",
      "address": "인천광역시 서구 중봉대로 602 (연희동)",
      "phone": "716-6006",
      "lat": 37.5306459,
      "lng": 126.6523638,
      "motherCapacity": 49,
      "infantCapacity": 49,
      "nurseCount": 7,
      "nurseAidCount": 39
    },
    {
      "id": "전남공공산후조리원_전라남도_지정2호점_전라남도_강진군_강진읍_탐진로_5",
      "name": "전남공공산후조리원 전라남도 지정2호점",
      "address": "전라남도 강진군 강진읍 탐진로 5",
      "phone": "061-430-1010",
      "lat": 34.6342034,
      "lng": 126.7598268,
      "motherCapacity": 10,
      "infantCapacity": 14,
      "nurseCount": 4,
      "nurseAidCount": 3
    },
    {
      "id": "미즈아이산후조리원_전라남도_목포시_백년대로_418,_미즈아이병원_(옥암동)",
      "name": "미즈아이산후조리원",
      "address": "전라남도 목포시 백년대로 418, 미즈아이병원 (옥암동)",
      "phone": "061-260-8888",
      "lat": 34.8057633,
      "lng": 126.43431,
      "motherCapacity": 16,
      "infantCapacity": 16,
      "nurseCount": 6,
      "nurseAidCount": 4
    },
    {
      "id": "한사랑산후조리원_전라남도_목포시_백년대로_335_(상동)",
      "name": "한사랑산후조리원",
      "address": "전라남도 목포시 백년대로 335 (상동)",
      "phone": "284-8855",
      "lat": 34.8027871,
      "lng": 126.425412,
      "motherCapacity": 16,
      "infantCapacity": 16,
      "nurseCount": 5,
      "nurseAidCount": 4
    },
    {
      "id": "현대병원_산후조리원_전라남도_순천시_장선배기1길_8_(조례동,현대병원_산후조리원)",
      "name": "현대병원 산후조리원",
      "address": "전라남도 순천시 장선배기1길 8 (조례동,현대병원 산후조리원)",
      "phone": "061-720-1111",
      "lat": 34.9502996,
      "lng": 127.5247268,
      "motherCapacity": 17,
      "infantCapacity": 17,
      "nurseCount": 7,
      "nurseAidCount": 18
    },
    {
      "id": "미즈산후조리원_전라남도_순천시_조례1길_10-26_(조례동)",
      "name": "미즈산후조리원",
      "address": "전라남도 순천시 조례1길 10-26 (조례동)",
      "phone": "720-8000",
      "lat": 34.9568929,
      "lng": 127.5242055,
      "motherCapacity": 43,
      "infantCapacity": 43,
      "nurseCount": 7,
      "nurseAidCount": 18
    },
    {
      "id": "전라남도_공공산후조리원_전라남도_해남군_해남읍_해남로_45_(해남종합병원)",
      "name": "전라남도 공공산후조리원",
      "address": "전라남도 해남군 해남읍 해남로 45 (해남종합병원)",
      "phone": "061-530-0263",
      "lat": 34.5685544,
      "lng": 126.6146757,
      "motherCapacity": 10,
      "infantCapacity": 10,
      "nurseCount": 4,
      "nurseAidCount": 4
    },
    {
      "id": "미래여성산후조리원_전라남도_광양시_중마중앙로_142,_1-5층_(중동)",
      "name": "미래여성산후조리원",
      "address": "전라남도 광양시 중마중앙로 142, 1-5층 (중동)",
      "phone": "061-791-7070",
      "lat": 34.9398282,
      "lng": 127.7005043,
      "motherCapacity": 19,
      "infantCapacity": 19,
      "nurseCount": 4,
      "nurseAidCount": 8
    },
    {
      "id": "마티네_차움_산후조리원_경기도_고양시_일산동구_중앙로_1205,_차병원(11~13층)_(장항동)",
      "name": "마티네 차움 산후조리원",
      "address": "경기도 고양시 일산동구 중앙로 1205, 차병원(11~13층) (장항동)",
      "phone": "031-782-8998",
      "lat": 37.6514307,
      "lng": 126.7780368,
      "motherCapacity": 51,
      "infantCapacity": 51,
      "nurseCount": 18,
      "nurseAidCount": 41
    },
    {
      "id": "한나산후조리원_전북특별자치도_전주시_덕진구_기린대로_489_(덕진동1가)",
      "name": "한나산후조리원",
      "address": "전북특별자치도 전주시 덕진구 기린대로 489 (덕진동1가)",
      "phone": "063-250-3400",
      "lat": 35.8397352,
      "lng": 127.1264714,
      "motherCapacity": 19,
      "infantCapacity": 19,
      "nurseCount": 5,
      "nurseAidCount": 14
    },
    {
      "id": "마더힐산후조리원_전북특별자치도_전주시_완산구_홍산로_245,_7,8층_(효자동2가)",
      "name": "마더힐산후조리원",
      "address": "전북특별자치도 전주시 완산구 홍산로 245, 7,8층 (효자동2가)",
      "phone": "063-236-1052",
      "lat": 35.8125397,
      "lng": 127.1075904,
      "motherCapacity": 18,
      "infantCapacity": 18,
      "nurseCount": 1,
      "nurseAidCount": 9
    },
    {
      "id": "한별산후조리원_전북특별자치도_전주시_덕진구_견훤로_215,_제1동_3,5,6층_(인후동1가)",
      "name": "한별산후조리원",
      "address": "전북특별자치도 전주시 덕진구 견훤로 215, 제1동 3,5,6층 (인후동1가)",
      "phone": "063-244-3559",
      "lat": 35.8277297,
      "lng": 127.1607856,
      "motherCapacity": 22,
      "infantCapacity": 25,
      "nurseCount": 3,
      "nurseAidCount": 12
    },
    {
      "id": "마더힐산후조리원_전라남도_순천시_충효로_15,_메가박스_3층_318호_(덕암동)",
      "name": "마더힐산후조리원",
      "address": "전라남도 순천시 충효로 15, 메가박스 3층 318호 (덕암동)",
      "phone": "",
      "lat": 34.9381416,
      "lng": 127.5129909,
      "motherCapacity": 22,
      "infantCapacity": 22,
      "nurseCount": 3,
      "nurseAidCount": 15
    },
    {
      "id": "마더힐산후조리원_전라남도_순천시_충효로_15,_메가박스_318호_(덕암동)",
      "name": "마더힐산후조리원",
      "address": "전라남도 순천시 충효로 15, 메가박스 318호 (덕암동)",
      "phone": "",
      "lat": 34.9381416,
      "lng": 127.5129909,
      "motherCapacity": 22,
      "infantCapacity": 22,
      "nurseCount": 3,
      "nurseAidCount": 15
    },
    {
      "id": "라헨느산후조리원_경기도_평택시_평택5로34번길_6-1,_5~6층_(합정동)",
      "name": "라헨느산후조리원",
      "address": "경기도 평택시 평택5로34번길 6-1, 5~6층 (합정동)",
      "phone": "1670-9793",
      "lat": 36.9862047,
      "lng": 127.1138544,
      "motherCapacity": 24,
      "infantCapacity": 24,
      "nurseCount": 4,
      "nurseAidCount": 6
    },
    {
      "id": "더헬리아_산후조리원_경기도_수원시_권선구_금곡로197번길_18-39,_5-6층_(금곡동)",
      "name": "더헬리아 산후조리원",
      "address": "경기도 수원시 권선구 금곡로197번길 18-39, 5-6층 (금곡동)",
      "phone": "031-306-0270",
      "lat": 37.2725207,
      "lng": 126.9557337,
      "motherCapacity": 17,
      "infantCapacity": 17,
      "nurseCount": 3,
      "nurseAidCount": 1
    },
    {
      "id": "양양군_공공산후조리원_강원특별자치도_양양군_양양읍_서문2길_17,_양양군_육아통합지원센터(산후조리원)",
      "name": "양양군 공공산후조리원",
      "address": "강원특별자치도 양양군 양양읍 서문2길 17, 양양군 육아통합지원센터(산후조리원)",
      "phone": "033-673-7977",
      "lat": 38.0683071,
      "lng": 128.6171599,
      "motherCapacity": 7,
      "infantCapacity": 7,
      "nurseCount": 5,
      "nurseAidCount": 5
    },
    {
      "id": "모아산후조리원_광주광역시_남구_백양로_13_(백운동)",
      "name": "모아산후조리원",
      "address": "광주광역시 남구 백양로 13 (백운동)",
      "phone": "062-670-7700",
      "lat": 35.1308776,
      "lng": 126.9053844,
      "motherCapacity": 24,
      "infantCapacity": 24,
      "nurseCount": 7,
      "nurseAidCount": 8
    },
    {
      "id": "가오플러스_산후조리원_대전광역시_동구_은어송로_63_(가오동,9층)",
      "name": "가오플러스 산후조리원",
      "address": "대전광역시 동구 은어송로 63 (가오동,9층)",
      "phone": "042) 286-3535",
      "lat": 36.3037215,
      "lng": 127.4581593,
      "motherCapacity": 11,
      "infantCapacity": 11,
      "nurseCount": 2,
      "nurseAidCount": 5
    },
    {
      "id": "라온산후조리원_대전광역시_동구_동서대로1683번길_33-11_(용전동)",
      "name": "라온산후조리원",
      "address": "대전광역시 동구 동서대로1683번길 33-11 (용전동)",
      "phone": "042-286-3575",
      "lat": 36.3471575,
      "lng": 127.4377265,
      "motherCapacity": 25,
      "infantCapacity": 25,
      "nurseCount": 5,
      "nurseAidCount": 15
    },
    {
      "id": "좋은문화_산후조리원_부산광역시_동구_범일로_119_(범일동,_좋은문화병원)",
      "name": "좋은문화 산후조리원",
      "address": "부산광역시 동구 범일로 119 (범일동, 좋은문화병원)",
      "phone": "051)643-3700",
      "lat": 35.1378064,
      "lng": 129.0613203,
      "motherCapacity": 43,
      "infantCapacity": 43,
      "nurseCount": 6,
      "nurseAidCount": 7
    },
    {
      "id": "일신기독병원_산후조리원_부산광역시_동구_정공단로_34_(좌천동)",
      "name": "일신기독병원 산후조리원",
      "address": "부산광역시 동구 정공단로 34 (좌천동)",
      "phone": "051)630-0345",
      "lat": 35.1322516,
      "lng": 129.0569152,
      "motherCapacity": 14,
      "infantCapacity": 14,
      "nurseCount": 6,
      "nurseAidCount": 7
    },
    {
      "id": "제일여성산후조리원_부산광역시_해운대구_좌동로_66_(중동)",
      "name": "제일여성산후조리원",
      "address": "부산광역시 해운대구 좌동로 66 (중동)",
      "phone": "",
      "lat": 35.1676426,
      "lng": 129.1753874,
      "motherCapacity": 17,
      "infantCapacity": 17,
      "nurseCount": 2,
      "nurseAidCount": 7
    },
    {
      "id": "엘리움산후조리원_부산광역시_해운대구_해운대로_794,_엘리움_12층_(좌동)",
      "name": "엘리움산후조리원",
      "address": "부산광역시 해운대구 해운대로 794, 엘리움 12층 (좌동)",
      "phone": "",
      "lat": 35.1657284,
      "lng": 129.1780279,
      "motherCapacity": 20,
      "infantCapacity": 20,
      "nurseCount": 5,
      "nurseAidCount": 9
    },
    {
      "id": "미래로_산후조리원_부산광역시_북구_금곡대로_15_(덕천동,_미래로병원_7~9층)",
      "name": "미래로 산후조리원",
      "address": "부산광역시 북구 금곡대로 15 (덕천동, 미래로병원 7~9층)",
      "phone": "051)330-5620",
      "lat": 35.2082561,
      "lng": 129.0066101,
      "motherCapacity": 39,
      "infantCapacity": 39,
      "nurseCount": 4,
      "nurseAidCount": 8
    },
    {
      "id": "주식회사_미즈웰산후조리원_부산광역시_북구_금곡대로_280-7_(화명동)",
      "name": "주식회사 미즈웰산후조리원",
      "address": "부산광역시 북구 금곡대로 280-7 (화명동)",
      "phone": "051-797-7730",
      "lat": 35.230274,
      "lng": 129.0163859,
      "motherCapacity": 26,
      "infantCapacity": 26,
      "nurseCount": 4,
      "nurseAidCount": 11
    },
    {
      "id": "구세산후조리원_부산광역시_서구_구덕로_114_(충무동1가)",
      "name": "구세산후조리원",
      "address": "부산광역시 서구 구덕로 114 (충무동1가)",
      "phone": "253-5555",
      "lat": 35.0936418,
      "lng": 129.0260866,
      "motherCapacity": 9,
      "infantCapacity": 9,
      "nurseCount": 2,
      "nurseAidCount": 4
    },
    {
      "id": "주식회사_에디스산후조리원_부산광역시_사하구_낙동대로_363_(당리동)",
      "name": "주식회사 에디스산후조리원",
      "address": "부산광역시 사하구 낙동대로 363 (당리동)",
      "phone": "051-206-0999",
      "lat": 35.0984169,
      "lng": 128.9801229,
      "motherCapacity": 44,
      "infantCapacity": 44,
      "nurseCount": 3,
      "nurseAidCount": 4
    },
    {
      "id": "미래아이_산후조리원_부산광역시_사하구_낙동남로_1388_(하단동)",
      "name": "미래아이 산후조리원",
      "address": "부산광역시 사하구 낙동남로 1388 (하단동)",
      "phone": "051-200-9900",
      "lat": null,
      "lng": null,
      "motherCapacity": 29,
      "infantCapacity": 29,
      "nurseCount": 5,
      "nurseAidCount": 14
    },
    {
      "id": "순산후조리원_신관_부산광역시_금정구_중앙대로_1689_(부곡동)",
      "name": "순산후조리원 신관",
      "address": "부산광역시 금정구 중앙대로 1689 (부곡동)",
      "phone": "051-582-0070",
      "lat": 35.2321497,
      "lng": 129.0936809,
      "motherCapacity": 45,
      "infantCapacity": 45,
      "nurseCount": 4,
      "nurseAidCount": 17
    },
    {
      "id": "여성아이병원_산후조리원_경상북도_포항시_북구_우창로_22,_7호_(우현동)",
      "name": "여성아이병원 산후조리원",
      "address": "경상북도 포항시 북구 우창로 22, 7호 (우현동)",
      "phone": "255-5000",
      "lat": null,
      "lng": null,
      "motherCapacity": 15,
      "infantCapacity": 15,
      "nurseCount": 4,
      "nurseAidCount": 4
    },
    {
      "id": "엘_산후조리원_서울특별시_강남구_자곡로_110,_고수일레븐_1~3층_(자곡동)",
      "name": "엘 산후조리원",
      "address": "서울특별시 강남구 자곡로 110, 고수일레븐 1~3층 (자곡동)",
      "phone": "02)579-0303",
      "lat": 37.4691791,
      "lng": 127.0978211,
      "motherCapacity": 17,
      "infantCapacity": 17,
      "nurseCount": 4,
      "nurseAidCount": 10
    },
    {
      "id": "포항엘리시아산후조리원_경상북도_포항시_북구_법원로98번길_12_(장성동)",
      "name": "포항엘리시아산후조리원",
      "address": "경상북도 포항시 북구 법원로98번길 12 (장성동)",
      "phone": "054-248-0110",
      "lat": 36.0804016,
      "lng": 129.3889441,
      "motherCapacity": 7,
      "infantCapacity": 7,
      "nurseCount": 3,
      "nurseAidCount": 4
    },
    {
      "id": "우먼필산후조리원_경기도_오산시_대원로_24_(원동)",
      "name": "우먼필산후조리원",
      "address": "경기도 오산시 대원로 24 (원동)",
      "phone": "031-378-5949",
      "lat": 37.1433096,
      "lng": 127.0730229,
      "motherCapacity": 31,
      "infantCapacity": 31,
      "nurseCount": 3,
      "nurseAidCount": 11
    },
    {
      "id": "미르피아산후조리원_전북특별자치도_전주시_완산구_쑥고개로_343_(효자동2가)",
      "name": "미르피아산후조리원",
      "address": "전북특별자치도 전주시 완산구 쑥고개로 343 (효자동2가)",
      "phone": "063-221-1004",
      "lat": 35.8002949,
      "lng": 127.1047869,
      "motherCapacity": 15,
      "infantCapacity": 16,
      "nurseCount": 2,
      "nurseAidCount": 5
    },
    {
      "id": "정성산후조리원_전북특별자치도_전주시_덕진구_도당산4길_8-18_(우아동3가)",
      "name": "정성산후조리원",
      "address": "전북특별자치도 전주시 덕진구 도당산4길 8-18 (우아동3가)",
      "phone": "244-4755",
      "lat": 35.8448534,
      "lng": 127.1600689,
      "motherCapacity": 13,
      "infantCapacity": 13,
      "nurseCount": 2,
      "nurseAidCount": 7
    },
    {
      "id": "세나산후조리원_전북특별자치도_전주시_완산구_소대배기로_16_(평화동2가,3.4층)",
      "name": "세나산후조리원",
      "address": "전북특별자치도 전주시 완산구 소대배기로 16 (평화동2가,3.4층)",
      "phone": "063-229-8245",
      "lat": 35.7840517,
      "lng": 127.1339479,
      "motherCapacity": 14,
      "infantCapacity": 14,
      "nurseCount": 3,
      "nurseAidCount": 3
    },
    {
      "id": "미사린_산후조리원_경기도_하남시_미사강변대로34번길_66,_플레이스이안_5층_(풍산동)",
      "name": "미사린 산후조리원",
      "address": "경기도 하남시 미사강변대로34번길 66, 플레이스이안 5층 (풍산동)",
      "phone": "031-791-3355",
      "lat": 37.552641,
      "lng": 127.1898107,
      "motherCapacity": 14,
      "infantCapacity": 14,
      "nurseCount": 3,
      "nurseAidCount": 5
    },
    {
      "id": "이든산후조리원_경기도_김포시_유현로_52,_프라임빌복합상가_2층_일부호_(풍무동)",
      "name": "이든산후조리원",
      "address": "경기도 김포시 유현로 52, 프라임빌복합상가 2층 일부호 (풍무동)",
      "phone": "031-981-2998",
      "lat": 37.5940449,
      "lng": 126.7299003,
      "motherCapacity": 19,
      "infantCapacity": 19,
      "nurseCount": 3,
      "nurseAidCount": 6
    },
    {
      "id": "카렌시아산후조리원_경기도_의정부시_신흥로239번길_40,_신여성사후관리센터_(의정부동)",
      "name": "카렌시아산후조리원",
      "address": "경기도 의정부시 신흥로239번길 40, 신여성사후관리센터 (의정부동)",
      "phone": 318239194,
      "lat": 37.7349203,
      "lng": 127.04296,
      "motherCapacity": 24,
      "infantCapacity": 24,
      "nurseCount": 4,
      "nurseAidCount": 6
    },
    {
      "id": "경기_포천공공산후조리원_경기도_포천시_군내면_청성로_111-1",
      "name": "경기 포천공공산후조리원",
      "address": "경기도 포천시 군내면 청성로 111-1",
      "phone": "031-536-7147",
      "lat": 37.8939032,
      "lng": 127.2154555,
      "motherCapacity": 20,
      "infantCapacity": 20,
      "nurseCount": 6,
      "nurseAidCount": 10
    },
    {
      "id": "주식회사_드팜므산후조리원전주_전북특별자치도_전주시_완산구_세내로_285,_샘물아동병원_4,8,9층_(효자동3가)",
      "name": "주식회사 드팜므산후조리원전주",
      "address": "전북특별자치도 전주시 완산구 세내로 285, 샘물아동병원 4,8,9층 (효자동3가)",
      "phone": "063-285-1000",
      "lat": 35.8125604,
      "lng": 127.1135295,
      "motherCapacity": 21,
      "infantCapacity": 21,
      "nurseCount": 6,
      "nurseAidCount": 5
    },
    {
      "id": "더블유(W)산후조리원(송도점)_인천광역시_연수구_테크노파크로111번길_4,_드_메티스_빌딩_6-8층_(송도동)",
      "name": "더블유(W)산후조리원(송도점)",
      "address": "인천광역시 연수구 테크노파크로111번길 4, 드 메티스 빌딩 6-8층 (송도동)",
      "phone": "032-451-0077",
      "lat": 37.3832471,
      "lng": 126.6462584,
      "motherCapacity": 14,
      "infantCapacity": 14,
      "nurseCount": 4,
      "nurseAidCount": 4
    },
    {
      "id": "라엘르마곡_산후조리원_주식회사_서울특별시_강서구_마곡중앙8로5길_11,_마곡파인스퀘어Ⅲ_4,5층층_(마곡동)",
      "name": "라엘르마곡 산후조리원 주식회사",
      "address": "서울특별시 강서구 마곡중앙8로5길 11, 마곡파인스퀘어Ⅲ 4,5층층 (마곡동)",
      "phone": "02-2039-3530",
      "lat": 37.5590923,
      "lng": 126.8391958,
      "motherCapacity": 20,
      "infantCapacity": 20,
      "nurseCount": 4,
      "nurseAidCount": 6
    },
    {
      "id": "맘스밀리산후조리원_지축점_경기도_고양시_덕양구_지축로_50_(지축동)",
      "name": "맘스밀리산후조리원 지축점",
      "address": "경기도 고양시 덕양구 지축로 50 (지축동)",
      "phone": "02-381-9964",
      "lat": null,
      "lng": null,
      "motherCapacity": 11,
      "infantCapacity": 11,
      "nurseCount": 7,
      "nurseAidCount": 0
    },
    {
      "id": "아나이스_산후조리원_대구광역시_동구_팔공로_242-13,_연세메디컬센터_2층,3층_(봉무동)",
      "name": "아나이스 산후조리원",
      "address": "대구광역시 동구 팔공로 242-13, 연세메디컬센터 2층,3층 (봉무동)",
      "phone": "053-982-3333",
      "lat": 35.9179538,
      "lng": 128.6451289,
      "motherCapacity": 28,
      "infantCapacity": 28,
      "nurseCount": 3,
      "nurseAidCount": 5
    },
    {
      "id": "위대한탄생_산후조리원_부산광역시_연제구_중앙대로_1083_(연산동,_7층~10층(7층일부))",
      "name": "위대한탄생 산후조리원",
      "address": "부산광역시 연제구 중앙대로 1083 (연산동, 7층~10층(7층일부))",
      "phone": "051-862-0010",
      "lat": 35.1817706,
      "lng": 129.0824136,
      "motherCapacity": 47,
      "infantCapacity": 50,
      "nurseCount": 8,
      "nurseAidCount": 22
    },
    {
      "id": "연제일신_산후조리원_부산광역시_연제구_월드컵대로120번길_15(연산동)",
      "name": "연제일신 산후조리원",
      "address": "부산광역시 연제구 월드컵대로120번길 15(연산동)",
      "phone": "051-852-2031",
      "lat": 35.1822392,
      "lng": 129.0850672,
      "motherCapacity": 15,
      "infantCapacity": 17,
      "nurseCount": 4,
      "nurseAidCount": 8
    },
    {
      "id": "좋은날에_드라마_산후조리원_부산광역시_동래구_충렬대로_449,_6층_(안락동,_좋은날에드라마여성병원)",
      "name": "좋은날에 드라마 산후조리원",
      "address": "부산광역시 동래구 충렬대로 449, 6층 (안락동, 좋은날에드라마여성병원)",
      "phone": "",
      "lat": 35.1930581,
      "lng": 129.109795,
      "motherCapacity": 50,
      "infantCapacity": 50,
      "nurseCount": 0,
      "nurseAidCount": 0
    },
    {
      "id": "마미캠프_산후조리원_부산광역시_남구_수영로_294_(대연동,_동일스위트_3층_303,304호)",
      "name": "마미캠프 산후조리원",
      "address": "부산광역시 남구 수영로 294 (대연동, 동일스위트 3층 303,304호)",
      "phone": "621-1241",
      "lat": 35.1331525,
      "lng": 129.1009184,
      "motherCapacity": 28,
      "infantCapacity": 28,
      "nurseCount": 3,
      "nurseAidCount": 6
    },
    {
      "id": "통영자모산후조리원_경상남도_통영시_무전대로_4_(무전동,장미빌딩_301호)",
      "name": "통영자모산후조리원",
      "address": "경상남도 통영시 무전대로 4 (무전동,장미빌딩 301호)",
      "phone": "646-3537",
      "lat": 34.8570945,
      "lng": 128.4233276,
      "motherCapacity": 15,
      "infantCapacity": 15,
      "nurseCount": 2,
      "nurseAidCount": 6
    },
    {
      "id": "반송제일산후조리원_경기도_화성시_동탄공원로_24_(반송동,_덕천메디칼프라자2~5층)",
      "name": "반송제일산후조리원",
      "address": "경기도 화성시 동탄공원로 24 (반송동, 덕천메디칼프라자2~5층)",
      "phone": "031-8015-0115",
      "lat": 37.1989198,
      "lng": 127.0618331,
      "motherCapacity": 20,
      "infantCapacity": 20,
      "nurseCount": 3,
      "nurseAidCount": 8
    },
    {
      "id": "동탄제일산후조리원_경기도_동탄중앙로_381-7_(동탄성심프라자_5,6,7층)",
      "name": "동탄제일산후조리원",
      "address": "경기도 동탄중앙로 381-7 (동탄성심프라자 5,6,7층)",
      "phone": "8015-1115",
      "lat": 37.2131429,
      "lng": 127.0812352,
      "motherCapacity": 25,
      "infantCapacity": 25,
      "nurseCount": 4,
      "nurseAidCount": 9
    },
    {
      "id": "동탄제일프리미엄산후조리원_경기도_화성시_삼성1로_138_(석우동)",
      "name": "동탄제일프리미엄산후조리원",
      "address": "경기도 화성시 삼성1로 138 (석우동)",
      "phone": "8015-7911",
      "lat": 37.2131953,
      "lng": 127.0807333,
      "motherCapacity": 44,
      "infantCapacity": 44,
      "nurseCount": 3,
      "nurseAidCount": 5
    },
    {
      "id": "주식회사_아이소리산후조리원_경기도_화성시_동탄문화센터로_61,_3층_(반송동,_아시아_프라자)",
      "name": "주식회사 아이소리산후조리원",
      "address": "경기도 화성시 동탄문화센터로 61, 3층 (반송동, 아시아 프라자)",
      "phone": "8015-2022",
      "lat": 37.1968575,
      "lng": 127.0742087,
      "motherCapacity": 25,
      "infantCapacity": 25,
      "nurseCount": 3,
      "nurseAidCount": 2
    },
    {
      "id": "(주)마벨르산후조리원_화성동탄점_경기도_화성시_영통로50번길_49,_반달마을두산위브_상가동_2층_(반월동)",
      "name": "(주)마벨르산후조리원 화성동탄점",
      "address": "경기도 화성시 영통로50번길 49, 반달마을두산위브 상가동 2층 (반월동)",
      "phone": "031-273-6644",
      "lat": 37.2320821,
      "lng": 127.0684224,
      "motherCapacity": 18,
      "infantCapacity": 19,
      "nurseCount": 4,
      "nurseAidCount": 9
    },
    {
      "id": "미즈파크산후조리원_경기도_화성시_동탄지성로_139,_2,5층_(능동)",
      "name": "미즈파크산후조리원",
      "address": "경기도 화성시 동탄지성로 139, 2,5층 (능동)",
      "phone": 3180037575,
      "lat": 37.2064768,
      "lng": 127.0622469,
      "motherCapacity": 17,
      "infantCapacity": 20,
      "nurseCount": 5,
      "nurseAidCount": 6
    },
    {
      "id": "해피본_산후조리원_경기도_화성시_향남읍_행정중앙2로_69-17",
      "name": "해피본 산후조리원",
      "address": "경기도 화성시 향남읍 행정중앙2로 69-17",
      "phone": 3180598866,
      "lat": 37.1274351,
      "lng": 126.9249527,
      "motherCapacity": 15,
      "infantCapacity": 15,
      "nurseCount": 2,
      "nurseAidCount": 1
    },
    {
      "id": "gm산후조리원_경기도_화성시_봉담읍_삼천병마로_1344",
      "name": "gm산후조리원",
      "address": "경기도 화성시 봉담읍 삼천병마로 1344",
      "phone": "031-278-7373",
      "lat": 37.2215723,
      "lng": 126.9555814,
      "motherCapacity": 10,
      "infantCapacity": 10,
      "nurseCount": 2,
      "nurseAidCount": 5
    },
    {
      "id": "센트럴산후조리원_경기도_화성시_동탄지성로_126,_정일프라자_4,5층_(반송동)",
      "name": "센트럴산후조리원",
      "address": "경기도 화성시 동탄지성로 126, 정일프라자 4,5층 (반송동)",
      "phone": "031-8003-5445",
      "lat": 37.2065141,
      "lng": 127.0639146,
      "motherCapacity": 23,
      "infantCapacity": 23,
      "nurseCount": 5,
      "nurseAidCount": 4
    },
    {
      "id": "위대한탄생_산후조리원_경기도_화성시_동탄대로_537,_3층_338~342호_(오산동)",
      "name": "위대한탄생 산후조리원",
      "address": "경기도 화성시 동탄대로 537, 3층 338~342호 (오산동)",
      "phone": "031-372-6762",
      "lat": 37.1990975,
      "lng": 127.099458,
      "motherCapacity": 18,
      "infantCapacity": 18,
      "nurseCount": 5,
      "nurseAidCount": 8
    },
    {
      "id": "(주)노블아이_산후조리원_경기도_화성시_동탄신리천로_254,_5층_(오산동)",
      "name": "(주)노블아이 산후조리원",
      "address": "경기도 화성시 동탄신리천로 254, 5층 (오산동)",
      "phone": "031-8077-2292",
      "lat": 37.1812322,
      "lng": 127.1082164,
      "motherCapacity": 19,
      "infantCapacity": 19,
      "nurseCount": 3,
      "nurseAidCount": 10
    },
    {
      "id": "GM제일산후조리원_경기도_광명시_광명로_878_(광명동)",
      "name": "GM제일산후조리원",
      "address": "경기도 광명시 광명로 878 (광명동)",
      "phone": "02-2616-2686",
      "lat": 37.4745495,
      "lng": 126.8557866,
      "motherCapacity": 20,
      "infantCapacity": 20,
      "nurseCount": 3,
      "nurseAidCount": 9
    },
    {
      "id": "한림산후조리원_인천광역시_계양구_장제로_718_(작전동,3층)",
      "name": "한림산후조리원",
      "address": "인천광역시 계양구 장제로 718 (작전동,3층)",
      "phone": "032-552-9696",
      "lat": 37.5290193,
      "lng": 126.7363798,
      "motherCapacity": 17,
      "infantCapacity": 14,
      "nurseCount": 3,
      "nurseAidCount": 8
    },
    {
      "id": "모스트_산후조리원_충청북도_충주시_사천개1길_2,_청보테라스타워_7,8층_(호암동)",
      "name": "모스트 산후조리원",
      "address": "충청북도 충주시 사천개1길 2, 청보테라스타워 7,8층 (호암동)",
      "phone": "043-855-8886",
      "lat": 36.9529088,
      "lng": 127.9378148,
      "motherCapacity": 27,
      "infantCapacity": 27,
      "nurseCount": 2,
      "nurseAidCount": 11
    },
    {
      "id": "울산_북구_공공산후조리원_울산광역시_북구_호계매곡5로_60,_울산북구공공산후조리원_(호계동)",
      "name": "울산 북구 공공산후조리원",
      "address": "울산광역시 북구 호계매곡5로 60, 울산북구공공산후조리원 (호계동)",
      "phone": "052-294-9123",
      "lat": 35.6286522,
      "lng": 129.3672355,
      "motherCapacity": 28,
      "infantCapacity": 28,
      "nurseCount": 5,
      "nurseAidCount": 12
    },
    {
      "id": "라움산후조리원_경상남도_창원시_의창구_중동중앙로_83,_더세븐파크_7층_701호_(중동)",
      "name": "라움산후조리원",
      "address": "경상남도 창원시 의창구 중동중앙로 83, 더세븐파크 7층 701호 (중동)",
      "phone": "055-276-9242",
      "lat": 35.2562631,
      "lng": 128.6299618,
      "motherCapacity": 18,
      "infantCapacity": 18,
      "nurseCount": 3,
      "nurseAidCount": 8
    },
    {
      "id": "자혜의료재단_산후조리원_경상북도_영천시_호국로_145,_영천제이병원_(망정동)",
      "name": "자혜의료재단 산후조리원",
      "address": "경상북도 영천시 호국로 145, 영천제이병원 (망정동)",
      "phone": "054-331-9966",
      "lat": 35.9740144,
      "lng": 128.9553403,
      "motherCapacity": 5,
      "infantCapacity": 6,
      "nurseCount": 2,
      "nurseAidCount": 3
    },
    {
      "id": "맘스힐산후조리원_경상남도_창원시_의창구_용동로83번안길_3,_화사랑메디컬_2층_(사림동)",
      "name": "맘스힐산후조리원",
      "address": "경상남도 창원시 의창구 용동로83번안길 3, 화사랑메디컬 2층 (사림동)",
      "phone": "274-3575",
      "lat": 35.2358501,
      "lng": 128.7028939,
      "motherCapacity": 17,
      "infantCapacity": 17,
      "nurseCount": 3,
      "nurseAidCount": 6
    },
    {
      "id": "트리시아산후조리원_경기도_하남시_미사강변대로_60,_풍산동_514-2업무의료근생시설_6~7층_(풍산동)",
      "name": "트리시아산후조리원",
      "address": "경기도 하남시 미사강변대로 60, 풍산동 514-2업무의료근생시설 6~7층 (풍산동)",
      "phone": "",
      "lat": 37.552288,
      "lng": 127.1889955,
      "motherCapacity": 19,
      "infantCapacity": 19,
      "nurseCount": 3,
      "nurseAidCount": 2
    },
    {
      "id": "트리시아_산후조리원_경기도_하남시_미사강변대로_60,_풍산동_514-2업무의료근생시설_(풍산동)",
      "name": "트리시아 산후조리원",
      "address": "경기도 하남시 미사강변대로 60, 풍산동 514-2업무의료근생시설 (풍산동)",
      "phone": "",
      "lat": 37.552288,
      "lng": 127.1889955,
      "motherCapacity": 19,
      "infantCapacity": 19,
      "nurseCount": 3,
      "nurseAidCount": 2
    },
    {
      "id": "(주)더케어_산후조리원_경기도_수원시_권선구_호매실로104번길_24-76,_4-6층_(호매실동)",
      "name": "(주)더케어 산후조리원",
      "address": "경기도 수원시 권선구 호매실로104번길 24-76, 4-6층 (호매실동)",
      "phone": "",
      "lat": 37.2567393,
      "lng": 126.9652709,
      "motherCapacity": 15,
      "infantCapacity": 18,
      "nurseCount": 3,
      "nurseAidCount": 10
    },
    {
      "id": "서울산후조리원_전북특별자치도_정읍시_상동중앙로_55-1_(상동)",
      "name": "서울산후조리원",
      "address": "전북특별자치도 정읍시 상동중앙로 55-1 (상동)",
      "phone": "063-532-9600",
      "lat": 35.5587412,
      "lng": 126.8705952,
      "motherCapacity": 7,
      "infantCapacity": 7,
      "nurseCount": 2,
      "nurseAidCount": 3
    },
    {
      "id": "미래와여성_산후조리원_전북특별자치도_군산시_문화로_164,_미래와여성_산부인과_(수송동)",
      "name": "미래와여성 산후조리원",
      "address": "전북특별자치도 군산시 문화로 164, 미래와여성 산부인과 (수송동)",
      "phone": "",
      "lat": 35.9666134,
      "lng": 126.7257292,
      "motherCapacity": 12,
      "infantCapacity": 15,
      "nurseCount": 0,
      "nurseAidCount": 0
    },
    {
      "id": "은혜_산후조리원_전북특별자치도_군산시_월명로_144_(수송동)",
      "name": "은혜 산후조리원",
      "address": "전북특별자치도 군산시 월명로 144 (수송동)",
      "phone": "471-2955",
      "lat": 35.9537424,
      "lng": 126.7185858,
      "motherCapacity": 16,
      "infantCapacity": 16,
      "nurseCount": 2,
      "nurseAidCount": 6
    },
    {
      "id": "보네르아샤_산후조리원_서울특별시_양천구_화곡로_64,_동화빌딩_2층_(신월동)",
      "name": "보네르아샤 산후조리원",
      "address": "서울특별시 양천구 화곡로 64, 동화빌딩 2층 (신월동)",
      "phone": "02)2698-3588",
      "lat": 37.5362921,
      "lng": 126.8309685,
      "motherCapacity": 17,
      "infantCapacity": 17,
      "nurseCount": "",
      "nurseAidCount": ""
    },
    {
      "id": "(주)더블유산후조리원_광주광역시_광산구_임방울대로_331,_2-3층_(수완동)",
      "name": "(주)더블유산후조리원",
      "address": "광주광역시 광산구 임방울대로 331, 2-3층 (수완동)",
      "phone": "062-616-9100",
      "lat": 35.1866499,
      "lng": 126.825148,
      "motherCapacity": 20,
      "infantCapacity": 20,
      "nurseCount": 3,
      "nurseAidCount": 8
    },
    {
      "id": "주식회사_더블유산후조리원_광주광역시_광산구_수완동_1415번지_2층,3층",
      "name": "주식회사 더블유산후조리원",
      "address": "광주광역시 광산구 수완동 1415번지 2층,3층",
      "phone": "062-616-9100",
      "lat": null,
      "lng": null,
      "motherCapacity": 20,
      "infantCapacity": 20,
      "nurseCount": 3,
      "nurseAidCount": 8
    },
    {
      "id": "미즈제일산후조리원_대전광역시_유성구_계룡로_126,_7,8,9층_(봉명동)",
      "name": "미즈제일산후조리원",
      "address": "대전광역시 유성구 계룡로 126, 7,8,9층 (봉명동)",
      "phone": "042-821-0001",
      "lat": 36.3495852,
      "lng": 127.3463262,
      "motherCapacity": 43,
      "infantCapacity": 43,
      "nurseCount": 5,
      "nurseAidCount": 11
    },
    {
      "id": "예담산후조리원_대전광역시_서구_도안대로_25_(관저동)",
      "name": "예담산후조리원",
      "address": "대전광역시 서구 도안대로 25 (관저동)",
      "phone": "042-546-9302",
      "lat": 36.3008765,
      "lng": 127.3365088,
      "motherCapacity": 24,
      "infantCapacity": 26,
      "nurseCount": 4,
      "nurseAidCount": 9
    },
    {
      "id": "미즈여성병원부설산후조리원_대전광역시_서구_문정로2번길_95_(탄방동,_주안빌딩)",
      "name": "미즈여성병원부설산후조리원",
      "address": "대전광역시 서구 문정로2번길 95 (탄방동, 주안빌딩)",
      "phone": "476-9970",
      "lat": 36.3403754,
      "lng": 127.3876342,
      "motherCapacity": 36,
      "infantCapacity": 36,
      "nurseCount": 5,
      "nurseAidCount": 23
    },
    {
      "id": "아이사랑산후조리원_부산광역시_부산진구_가야대로_472_(개금동,_보문빌딩)",
      "name": "아이사랑산후조리원",
      "address": "부산광역시 부산진구 가야대로 472 (개금동, 보문빌딩)",
      "phone": "890-7103",
      "lat": 35.1494356,
      "lng": 129.0257788,
      "motherCapacity": 20,
      "infantCapacity": 20,
      "nurseCount": 2,
      "nurseAidCount": 7
    },
    {
      "id": "미래여성산후조리원_부산광역시_부산진구_가야대로_459_(개금동,_미래여성병원)",
      "name": "미래여성산후조리원",
      "address": "부산광역시 부산진구 가야대로 459 (개금동, 미래여성병원)",
      "phone": "051-890-9980",
      "lat": 35.1506032,
      "lng": 129.0245909,
      "motherCapacity": 28,
      "infantCapacity": 28,
      "nurseCount": 4,
      "nurseAidCount": 12
    },
    {
      "id": "온산후조리원_경상남도_창원시_진해구_진해대로776번길_27,_6층_(이동,_온메디칼빌딩)",
      "name": "온산후조리원",
      "address": "경상남도 창원시 진해구 진해대로776번길 27, 6층 (이동, 온메디칼빌딩)",
      "phone": "055-541-3575",
      "lat": 35.153051,
      "lng": 128.7007011,
      "motherCapacity": 15,
      "infantCapacity": 15,
      "nurseCount": 3,
      "nurseAidCount": 2
    },
    {
      "id": "미즈맘산후조리원_경상남도_창원시_의창구_원이대로285번길_6,_9층_(봉곡동)",
      "name": "미즈맘산후조리원",
      "address": "경상남도 창원시 의창구 원이대로285번길 6, 9층 (봉곡동)",
      "phone": "277-2255",
      "lat": 35.2395984,
      "lng": 128.6539486,
      "motherCapacity": 21,
      "infantCapacity": 21,
      "nurseCount": 4,
      "nurseAidCount": 9
    },
    {
      "id": "주식회사_리베라산후조리원_경상남도_창원시_성산구_중앙대로100번길_9,_5층_2호_(상남동)",
      "name": "주식회사 리베라산후조리원",
      "address": "경상남도 창원시 성산구 중앙대로100번길 9, 5층 2호 (상남동)",
      "phone": "055-262-9922",
      "lat": 35.2201182,
      "lng": 128.6827887,
      "motherCapacity": 23,
      "infantCapacity": 23,
      "nurseCount": 2,
      "nurseAidCount": 3
    },
    {
      "id": "위드산후조리원_경상남도_창원시_마산회원구_양덕로_144,_상현메디컬빌딩_(양덕동)",
      "name": "위드산후조리원",
      "address": "경상남도 창원시 마산회원구 양덕로 144, 상현메디컬빌딩 (양덕동)",
      "phone": "055-253-5555",
      "lat": 35.2282388,
      "lng": 128.5863619,
      "motherCapacity": 23,
      "infantCapacity": 23,
      "nurseCount": 3,
      "nurseAidCount": 8
    },
    {
      "id": "한마음산후조리원_경상남도_창원시_의창구_용동로57번길_18,_시그니처_M_301호_(사림동)",
      "name": "한마음산후조리원",
      "address": "경상남도 창원시 의창구 용동로57번길 18, 시그니처 M 301호 (사림동)",
      "phone": "055-283-3055",
      "lat": 35.2351328,
      "lng": 128.6999928,
      "motherCapacity": 18,
      "infantCapacity": 8,
      "nurseCount": 2,
      "nurseAidCount": 8
    },
    {
      "id": "선린산후조리원_경상남도_창원시_성산구_가양로124번길_7,_선린빌딩_5층_(대방동)",
      "name": "선린산후조리원",
      "address": "경상남도 창원시 성산구 가양로124번길 7, 선린빌딩 5층 (대방동)",
      "phone": "055-286-6650~1",
      "lat": 35.2056438,
      "lng": 128.7093789,
      "motherCapacity": 12,
      "infantCapacity": 12,
      "nurseCount": 2,
      "nurseAidCount": 5
    },
    {
      "id": "참여성병원산후조리원_경상남도_창원시_마산합포구_불종거리로_19_(동성동)",
      "name": "참여성병원산후조리원",
      "address": "경상남도 창원시 마산합포구 불종거리로 19 (동성동)",
      "phone": "249-0593",
      "lat": 35.2030833,
      "lng": 128.5786462,
      "motherCapacity": 13,
      "infantCapacity": 13,
      "nurseCount": 3,
      "nurseAidCount": 5
    },
    {
      "id": "모란산후조리원_경상남도_창원시_성산구_마디미서로_56,_모란여성병원_8.9층_(상남동)",
      "name": "모란산후조리원",
      "address": "경상남도 창원시 성산구 마디미서로 56, 모란여성병원 8.9층 (상남동)",
      "phone": "282-1600",
      "lat": 35.2175487,
      "lng": 128.6829325,
      "motherCapacity": 14,
      "infantCapacity": 14,
      "nurseCount": 2,
      "nurseAidCount": 8
    },
    {
      "id": "마미캠프산후조리원_경상남도_창원시_성산구_상남로_73,_서울메디컬센터_3층_(상남동)",
      "name": "마미캠프산후조리원",
      "address": "경상남도 창원시 성산구 상남로 73, 서울메디컬센터 3층 (상남동)",
      "phone": "055-286-3575",
      "lat": 35.2176569,
      "lng": 128.6819277,
      "motherCapacity": 22,
      "infantCapacity": 22,
      "nurseCount": 3,
      "nurseAidCount": 9
    },
    {
      "id": "시온산후조리원_경기도_수원시_영통구_봉영로_1605_(영통동)",
      "name": "시온산후조리원",
      "address": "경기도 수원시 영통구 봉영로 1605 (영통동)",
      "phone": "031-206-7500",
      "lat": 37.2516959,
      "lng": 127.0755555,
      "motherCapacity": 30,
      "infantCapacity": 30,
      "nurseCount": 3,
      "nurseAidCount": 6
    },
    {
      "id": "에덴메디여성병원_산후조리원_경기도_수원시_권선구_동수원로_220_(권선동)",
      "name": "에덴메디여성병원 산후조리원",
      "address": "경기도 수원시 권선구 동수원로 220 (권선동)",
      "phone": "236-2000",
      "lat": 37.2465134,
      "lng": 127.0360994,
      "motherCapacity": 16,
      "infantCapacity": 18,
      "nurseCount": 4,
      "nurseAidCount": 8
    },
    {
      "id": "주식회사_연세산후조리원_경기도_수원시_영통구_중부대로_333,_3,_4,_5층_(원천동)",
      "name": "주식회사 연세산후조리원",
      "address": "경기도 수원시 영통구 중부대로 333, 3, 4, 5층 (원천동)",
      "phone": "031-548-2020",
      "lat": 37.2707415,
      "lng": 127.0542458,
      "motherCapacity": 20,
      "infantCapacity": 20,
      "nurseCount": 3,
      "nurseAidCount": 3
    },
    {
      "id": "주식회사_루시아산후조리원_경기도_수원시_권선구_서부로1596번길_10_(고색동)",
      "name": "주식회사 루시아산후조리원",
      "address": "경기도 수원시 권선구 서부로1596번길 10 (고색동)",
      "phone": "",
      "lat": 37.2486736,
      "lng": 126.9786358,
      "motherCapacity": 15,
      "infantCapacity": 15,
      "nurseCount": 3,
      "nurseAidCount": 6
    },
    {
      "id": "샤론산후조리원_경기도_수원시_영통구_청명남로34번길_21,_6층_(영통동,_테라스가든)",
      "name": "샤론산후조리원",
      "address": "경기도 수원시 영통구 청명남로34번길 21, 6층 (영통동, 테라스가든)",
      "phone": "031-204-9700",
      "lat": 37.2494805,
      "lng": 127.0788246,
      "motherCapacity": 21,
      "infantCapacity": 21,
      "nurseCount": 1,
      "nurseAidCount": 6
    },
    {
      "id": "세인트마리_여성병원_산후조리원_경기도_수원시_권선구_금곡로197번길_70_(금곡동)",
      "name": "세인트마리 여성병원 산후조리원",
      "address": "경기도 수원시 권선구 금곡로197번길 70 (금곡동)",
      "phone": "031-289-3056",
      "lat": 37.2726204,
      "lng": 126.9560298,
      "motherCapacity": 25,
      "infantCapacity": 25,
      "nurseCount": 3,
      "nurseAidCount": 14
    },
    {
      "id": "오늘산후조리원_경기도_수원시_영통구_반달로_21,_6층_(영통동,_매직플라자)",
      "name": "오늘산후조리원",
      "address": "경기도 수원시 영통구 반달로 21, 6층 (영통동, 매직플라자)",
      "phone": "031-307-1800",
      "lat": 37.2487983,
      "lng": 127.0771498,
      "motherCapacity": 25,
      "infantCapacity": 25,
      "nurseCount": 2,
      "nurseAidCount": 4
    },
    {
      "id": "베스트산후조리원_경기도_수원시_장안구_만석로5번길_12-10_(천천동)",
      "name": "베스트산후조리원",
      "address": "경기도 수원시 장안구 만석로5번길 12-10 (천천동)",
      "phone": "269-8833",
      "lat": 37.2925602,
      "lng": 126.9852393,
      "motherCapacity": 8,
      "infantCapacity": 0,
      "nurseCount": 2,
      "nurseAidCount": 3
    },
    {
      "id": "우먼플러스산후조리원_경기도_수원시_장안구_경수대로_892_(조원동)",
      "name": "우먼플러스산후조리원",
      "address": "경기도 수원시 장안구 경수대로 892 (조원동)",
      "phone": "248-8100",
      "lat": 37.297063,
      "lng": 127.0139923,
      "motherCapacity": 21,
      "infantCapacity": 21,
      "nurseCount": 3,
      "nurseAidCount": 9
    },
    {
      "id": "산후조리원품_경기도_수원시_영통구_반달로7번길_16_(영통동)",
      "name": "산후조리원품",
      "address": "경기도 수원시 영통구 반달로7번길 16 (영통동)",
      "phone": "206-3588",
      "lat": 37.2498096,
      "lng": 127.0764685,
      "motherCapacity": 22,
      "infantCapacity": 22,
      "nurseCount": 3,
      "nurseAidCount": 2
    },
    {
      "id": "(주)_미소산후조리원_경기도_수원시_영통구_반달로7번길_40_(영통동)",
      "name": "(주) 미소산후조리원",
      "address": "경기도 수원시 영통구 반달로7번길 40 (영통동)",
      "phone": "031-273-0051",
      "lat": 37.2506864,
      "lng": 127.0773073,
      "motherCapacity": 15,
      "infantCapacity": 15,
      "nurseCount": 3,
      "nurseAidCount": 8
    },
    {
      "id": "퀸스파크산후조리원_경기도_고양시_일산동구_위시티로_18_(식사동)",
      "name": "퀸스파크산후조리원",
      "address": "경기도 고양시 일산동구 위시티로 18 (식사동)",
      "phone": "",
      "lat": 37.6717657,
      "lng": 126.8096332,
      "motherCapacity": 13,
      "infantCapacity": 13,
      "nurseCount": 4,
      "nurseAidCount": 11
    },
    {
      "id": "세인트누보산후조리원_경기도_고양시_덕양구_충장로_2,_센트럴빌딩_8층_(행신동)",
      "name": "세인트누보산후조리원",
      "address": "경기도 고양시 덕양구 충장로 2, 센트럴빌딩 8층 (행신동)",
      "phone": "",
      "lat": 37.6102345,
      "lng": 126.8365749,
      "motherCapacity": 18,
      "infantCapacity": 19,
      "nurseCount": 4,
      "nurseAidCount": 4
    },
    {
      "id": "유재산후조리원_경기도_고양시_일산동구_중앙로_1317,_6,7층_(장항동,_일산복합빌딩)",
      "name": "유재산후조리원",
      "address": "경기도 고양시 일산동구 중앙로 1317, 6,7층 (장항동, 일산복합빌딩)",
      "phone": "031-810-9877",
      "lat": 37.6601319,
      "lng": 126.7720429,
      "motherCapacity": 36,
      "infantCapacity": 28,
      "nurseCount": 5,
      "nurseAidCount": 15
    },
    {
      "id": "더플라워_산후조리원_일산점_경기도_고양시_덕양구_화중로_72,_6층_(화정동,_케이탑리츠_화정빌딩)",
      "name": "더플라워 산후조리원 일산점",
      "address": "경기도 고양시 덕양구 화중로 72, 6층 (화정동, 케이탑리츠 화정빌딩)",
      "phone": "819-1000",
      "lat": 37.6308451,
      "lng": 126.8331437,
      "motherCapacity": 21,
      "infantCapacity": 21,
      "nurseCount": 3,
      "nurseAidCount": 6
    },
    {
      "id": "그레이스산후조리원_경기도_고양시_일산동구_중앙로_1071_(백석동)",
      "name": "그레이스산후조리원",
      "address": "경기도 고양시 일산동구 중앙로 1071 (백석동)",
      "phone": "031-901-4000",
      "lat": null,
      "lng": null,
      "motherCapacity": 23,
      "infantCapacity": 23,
      "nurseCount": 5,
      "nurseAidCount": 20
    },
    {
      "id": "킹덤_산후조리원_경기도_고양시_일산동구_중앙로_1072,_301,302호_(백석동)",
      "name": "킹덤 산후조리원",
      "address": "경기도 고양시 일산동구 중앙로 1072, 301,302호 (백석동)",
      "phone": "031-908-6020",
      "lat": 37.6423078,
      "lng": 126.7880088,
      "motherCapacity": 13,
      "infantCapacity": 16,
      "nurseCount": 3,
      "nurseAidCount": 7
    },
    {
      "id": "이자르산후조리원일산점_경기도_고양시_덕양구_중앙로558번길_16-6,_4층_(행신동)",
      "name": "이자르산후조리원일산점",
      "address": "경기도 고양시 덕양구 중앙로558번길 16-6, 4층 (행신동)",
      "phone": "938-3038",
      "lat": 37.6212212,
      "lng": 126.8382387,
      "motherCapacity": 17,
      "infantCapacity": 17,
      "nurseCount": 5,
      "nurseAidCount": 8
    },
    {
      "id": "사랑애산후조리원_경기도_고양시_일산서구_중앙로_1443,_가람상가_5층_(주엽동)",
      "name": "사랑애산후조리원",
      "address": "경기도 고양시 일산서구 중앙로 1443, 가람상가 5층 (주엽동)",
      "phone": "911-0704",
      "lat": 37.667628,
      "lng": 126.7618257,
      "motherCapacity": 19,
      "infantCapacity": 19,
      "nurseCount": 3,
      "nurseAidCount": 6
    },
    {
      "id": "아이산산후조리원_경기도_고양시_일산서구_덕이로_8_(덕이동)",
      "name": "아이산산후조리원",
      "address": "경기도 고양시 일산서구 덕이로 8 (덕이동)",
      "phone": "916-9410",
      "lat": 37.6870991,
      "lng": 126.7604614,
      "motherCapacity": 15,
      "infantCapacity": 15,
      "nurseCount": 3,
      "nurseAidCount": 12
    },
    {
      "id": "산본제일병원_부설_신산본산후조리원_경기도_군포시_산본로386번길_4-19_(산본동)",
      "name": "산본제일병원 부설 신산본산후조리원",
      "address": "경기도 군포시 산본로386번길 4-19 (산본동)",
      "phone": "031-390-1900",
      "lat": 37.3611723,
      "lng": 126.9331831,
      "motherCapacity": 22,
      "infantCapacity": 22,
      "nurseCount": 3,
      "nurseAidCount": 11
    },
    {
      "id": "베네라산후조리원_경기도_군포시_산본로_394_(산본동)",
      "name": "베네라산후조리원",
      "address": "경기도 군포시 산본로 394 (산본동)",
      "phone": "031-398-0721",
      "lat": 37.3624315,
      "lng": 126.9317288,
      "motherCapacity": 14,
      "infantCapacity": 14,
      "nurseCount": 3,
      "nurseAidCount": 9
    },
    {
      "id": "제일산후조리원_경기도_군포시_산본로386번길_4-11,_산본제일전문진료센터_4,5층_(산본동)",
      "name": "제일산후조리원",
      "address": "경기도 군포시 산본로386번길 4-11, 산본제일전문진료센터 4,5층 (산본동)",
      "phone": "031-390-3790",
      "lat": 37.3615576,
      "lng": 126.9328604,
      "motherCapacity": 22,
      "infantCapacity": 22,
      "nurseCount": 4,
      "nurseAidCount": 11
    },
    {
      "id": "맘스포레_산후조리원_경기도_군포시_산본로_398_(산본동,태주빌딩7층,8층)",
      "name": "맘스포레 산후조리원",
      "address": "경기도 군포시 산본로 398 (산본동,태주빌딩7층,8층)",
      "phone": "031-399-6522",
      "lat": 37.3626739,
      "lng": 126.9315249,
      "motherCapacity": 20,
      "infantCapacity": 20,
      "nurseCount": 4,
      "nurseAidCount": 10
    },
    {
      "id": "레지나_산후조리원_경기도_광명시_소하로109번길_22,_3~4층_(소하동)",
      "name": "레지나 산후조리원",
      "address": "경기도 광명시 소하로109번길 22, 3~4층 (소하동)",
      "phone": "02-6218-1010",
      "lat": 37.4449744,
      "lng": 126.8875808,
      "motherCapacity": 17,
      "infantCapacity": 17,
      "nurseCount": 3,
      "nurseAidCount": 6
    },
    {
      "id": "미래여성산후조리원_경기도_광명시_범안로_1062,_8~9층_(하안동)",
      "name": "미래여성산후조리원",
      "address": "경기도 광명시 범안로 1062, 8~9층 (하안동)",
      "phone": "02-807-1002",
      "lat": 37.4599356,
      "lng": 126.8828258,
      "motherCapacity": 15,
      "infantCapacity": 15,
      "nurseCount": 3,
      "nurseAidCount": 8
    },
    {
      "id": "벨라블리스아베끄_산후조리원_경기도_광명시_광명로_906_(광명동,_현대아이타워_9층)",
      "name": "벨라블리스아베끄 산후조리원",
      "address": "경기도 광명시 광명로 906 (광명동, 현대아이타워 9층)",
      "phone": "2686-5800",
      "lat": 37.4769295,
      "lng": 126.856984,
      "motherCapacity": 13,
      "infantCapacity": 13,
      "nurseCount": 3,
      "nurseAidCount": 6
    },
    {
      "id": "광명제일산후조리원_소하점_경기도_광명시_소하로_78,_4층_(소하동,_신성프라자)",
      "name": "광명제일산후조리원 소하점",
      "address": "경기도 광명시 소하로 78, 4층 (소하동, 신성프라자)",
      "phone": "02-898-0898",
      "lat": 37.4451064,
      "lng": 126.8854407,
      "motherCapacity": 14,
      "infantCapacity": 14,
      "nurseCount": 2,
      "nurseAidCount": 6
    },
    {
      "id": "이즈맘산후조리원_경기도_광명시_오리로_889_(철산동,_대륭빌딩_7,8층)",
      "name": "이즈맘산후조리원",
      "address": "경기도 광명시 오리로 889 (철산동, 대륭빌딩 7,8층)",
      "phone": "02-2066-3555",
      "lat": 37.4735103,
      "lng": 126.8657988,
      "motherCapacity": 17,
      "infantCapacity": 17,
      "nurseCount": 4,
      "nurseAidCount": 6
    },
    {
      "id": "로얄사임당_산후조리원_천왕점_서울특별시_구로구_천왕로_106,_5층_(오류동)",
      "name": "로얄사임당 산후조리원 천왕점",
      "address": "서울특별시 구로구 천왕로 106, 5층 (오류동)",
      "phone": "02-2688-6200",
      "lat": 37.4832263,
      "lng": 126.8406372,
      "motherCapacity": 13,
      "infantCapacity": 13,
      "nurseCount": 3,
      "nurseAidCount": 5
    },
    {
      "id": "아름제일_산후조리원_1관_서울특별시_구로구_새말로_94,_7~8층_(구로동)",
      "name": "아름제일 산후조리원 1관",
      "address": "서울특별시 구로구 새말로 94, 7~8층 (구로동)",
      "phone": 28559911,
      "lat": 37.5026623,
      "lng": 126.8925523,
      "motherCapacity": 14,
      "infantCapacity": 14,
      "nurseCount": 3,
      "nurseAidCount": 9
    },
    {
      "id": "맘스퀘어_산후조리원_서울특별시_구로구_경인로_240,_2층_(오류동)",
      "name": "맘스퀘어 산후조리원",
      "address": "서울특별시 구로구 경인로 240, 2층 (오류동)",
      "phone": "02-2611-7322",
      "lat": 37.4945669,
      "lng": 126.8494608,
      "motherCapacity": 18,
      "infantCapacity": 18,
      "nurseCount": 3,
      "nurseAidCount": 7
    },
    {
      "id": "민전_산후조리원_서울특별시_구로구_경인로_322,_3~4층_(개봉동,_민전산부인과)",
      "name": "민전 산후조리원",
      "address": "서울특별시 구로구 경인로 322, 3~4층 (개봉동, 민전산부인과)",
      "phone": "02-2060-9315",
      "lat": 37.4942367,
      "lng": 126.8580176,
      "motherCapacity": 16,
      "infantCapacity": 16,
      "nurseCount": 3,
      "nurseAidCount": 4
    },
    {
      "id": "광진아기맘미소산후조리원_서울특별시_광진구_뚝섬로_503,_3층_(자양동)",
      "name": "광진아기맘미소산후조리원",
      "address": "서울특별시 광진구 뚝섬로 503, 3층 (자양동)",
      "phone": "02-447-0065",
      "lat": 37.5333411,
      "lng": 127.0683873,
      "motherCapacity": 10,
      "infantCapacity": 10,
      "nurseCount": 5,
      "nurseAidCount": 7
    },
    {
      "id": "예그리나_산후조리원_서울특별시_광진구_구의로_28_(구의동)",
      "name": "예그리나 산후조리원",
      "address": "서울특별시 광진구 구의로 28 (구의동)",
      "phone": "02-457-6020",
      "lat": 37.5375475,
      "lng": 127.0919109,
      "motherCapacity": 9,
      "infantCapacity": 9,
      "nurseCount": 3,
      "nurseAidCount": 4
    },
    {
      "id": "(주)궁_산후조리원_구의점_서울특별시_광진구_자양로_192_(구의동)",
      "name": "(주)궁 산후조리원 구의점",
      "address": "서울특별시 광진구 자양로 192 (구의동)",
      "phone": "02-2083-0640",
      "lat": 37.5417142,
      "lng": 127.0874485,
      "motherCapacity": 22,
      "infantCapacity": 22,
      "nurseCount": 3,
      "nurseAidCount": 6
    },
    {
      "id": "마드레산후조리원_서울특별시_동대문구_전농로_102,_4층_(답십리동)",
      "name": "마드레산후조리원",
      "address": "서울특별시 동대문구 전농로 102, 4층 (답십리동)",
      "phone": "1599-3270",
      "lat": 37.5712467,
      "lng": 127.0600515,
      "motherCapacity": 18,
      "infantCapacity": 18,
      "nurseCount": 4,
      "nurseAidCount": 4
    },
    {
      "id": "소중한맘산후조리원_서울특별시_도봉구_도봉로_575,_7층_(쌍문동)",
      "name": "소중한맘산후조리원",
      "address": "서울특별시 도봉구 도봉로 575, 7층 (쌍문동)",
      "phone": "02-903-0033",
      "lat": 37.653605,
      "lng": 127.0408375,
      "motherCapacity": 19,
      "infantCapacity": 19,
      "nurseCount": 2,
      "nurseAidCount": 2
    },
    {
      "id": "M.J_산후조리원_서울특별시_금천구_시흥대로_415,_4~5층_(독산동,_DDS빌딩)",
      "name": "M.J 산후조리원",
      "address": "서울특별시 금천구 시흥대로 415, 4~5층 (독산동, DDS빌딩)",
      "phone": "02-2109-3003",
      "lat": 37.4680051,
      "lng": 126.8997615,
      "motherCapacity": 24,
      "infantCapacity": 24,
      "nurseCount": 3,
      "nurseAidCount": 9
    },
    {
      "id": "마미캠프산후조리원_서울특별시_도봉구_해등로_125_(창동)",
      "name": "마미캠프산후조리원",
      "address": "서울특별시 도봉구 해등로 125 (창동)",
      "phone": 29934300,
      "lat": 37.6519695,
      "lng": 127.042563,
      "motherCapacity": 15,
      "infantCapacity": 15,
      "nurseCount": 3,
      "nurseAidCount": 7
    },
    {
      "id": "블리스산후조리원_서울특별시_동대문구_천호대로_317,_9층_(답십리동,_하늘병원)",
      "name": "블리스산후조리원",
      "address": "서울특별시 동대문구 천호대로 317, 9층 (답십리동, 하늘병원)",
      "phone": "02-2212-2582",
      "lat": 37.5624734,
      "lng": 127.0575812,
      "motherCapacity": 17,
      "infantCapacity": 19,
      "nurseCount": 4,
      "nurseAidCount": 3
    },
    {
      "id": "햇빛병원부설_햇빛산후조리원_서울특별시_강북구_도봉로_131_(미아동)",
      "name": "햇빛병원부설 햇빛산후조리원",
      "address": "서울특별시 강북구 도봉로 131 (미아동)",
      "phone": "996-1511",
      "lat": 37.6178085,
      "lng": 127.0301627,
      "motherCapacity": 39,
      "infantCapacity": 39,
      "nurseCount": 6,
      "nurseAidCount": 14
    },
    {
      "id": "맘스텔라산후조리원_서울특별시_강북구_도봉로_136,_7층_(미아동,_풍양회관)",
      "name": "맘스텔라산후조리원",
      "address": "서울특별시 강북구 도봉로 136, 7층 (미아동, 풍양회관)",
      "phone": "02-985-3542",
      "lat": 37.6183118,
      "lng": 127.0308148,
      "motherCapacity": 18,
      "infantCapacity": 18,
      "nurseCount": 3,
      "nurseAidCount": 8
    },
    {
      "id": "예그리나_산후조리원_서울특별시_강동구_성안로_156,_우주빌딩_4층_(길동)",
      "name": "예그리나 산후조리원",
      "address": "서울특별시 강동구 성안로 156, 우주빌딩 4층 (길동)",
      "phone": "02) 472-6565",
      "lat": 37.5341752,
      "lng": 127.1375585,
      "motherCapacity": 17,
      "infantCapacity": 17,
      "nurseCount": 2,
      "nurseAidCount": 4
    },
    {
      "id": "트리니티산후조리원_강동송파점_서울특별시_강동구_강동대로_143-64,_태창타워_(성내동)",
      "name": "트리니티산후조리원 강동송파점",
      "address": "서울특별시 강동구 강동대로 143-64, 태창타워 (성내동)",
      "phone": "02-486-3300",
      "lat": 37.5251869,
      "lng": 127.1223458,
      "motherCapacity": 15,
      "infantCapacity": 14,
      "nurseCount": 3,
      "nurseAidCount": 2
    },
    {
      "id": "가율_산후조리원_서울특별시_강동구_천호대로_1128,_웰빙메디컬빌딩_6~7층_(성내동)",
      "name": "가율 산후조리원",
      "address": "서울특별시 강동구 천호대로 1128, 웰빙메디컬빌딩 6~7층 (성내동)",
      "phone": "02) 485-0087",
      "lat": 37.5313591,
      "lng": 127.1386411,
      "motherCapacity": 17,
      "infantCapacity": 17,
      "nurseCount": 4,
      "nurseAidCount": 7
    },
    {
      "id": "아쉐르_산후조리원_서울특별시_강동구_천호대로_1099,_정산타워빌딩_6층_(천호동)",
      "name": "아쉐르 산후조리원",
      "address": "서울특별시 강동구 천호대로 1099, 정산타워빌딩 6층 (천호동)",
      "phone": "02) 485-2151",
      "lat": 37.532978,
      "lng": 127.1362417,
      "motherCapacity": 17,
      "infantCapacity": 17,
      "nurseCount": 4,
      "nurseAidCount": 7
    },
    {
      "id": "몽쉘베베산후조리원_서울특별시_강동구_아리수로_421,_MIDC빌딩_7,8층_(강일동)",
      "name": "몽쉘베베산후조리원",
      "address": "서울특별시 강동구 아리수로 421, MIDC빌딩 7,8층 (강일동)",
      "phone": "02) 3428-3535",
      "lat": 37.5618302,
      "lng": 127.1762065,
      "motherCapacity": 19,
      "infantCapacity": 19,
      "nurseCount": 3,
      "nurseAidCount": 8
    },
    {
      "id": "마벨_산후조리원_서울특별시_강동구_양재대로_1657-11,_대은상가_5층_(명일동)",
      "name": "마벨 산후조리원",
      "address": "서울특별시 강동구 양재대로 1657-11, 대은상가 5층 (명일동)",
      "phone": "02-429-6777",
      "lat": 37.5506001,
      "lng": 127.1455327,
      "motherCapacity": 21,
      "infantCapacity": 21,
      "nurseCount": 3,
      "nurseAidCount": 9
    },
    {
      "id": "퍼스트스마일산후조리원_서울특별시_강동구_천호대로159길_13,_퍼스트스마일산후조리원_1층_(천호동)",
      "name": "퍼스트스마일산후조리원",
      "address": "서울특별시 강동구 천호대로159길 13, 퍼스트스마일산후조리원 1층 (천호동)",
      "phone": "1661-0997",
      "lat": 37.5353277,
      "lng": 127.1296995,
      "motherCapacity": 44,
      "infantCapacity": 44,
      "nurseCount": 5,
      "nurseAidCount": 10
    },
    {
      "id": "(주)라파엘산후조리원_서울특별시_강동구_올림픽로_833,_매일우리아이센타_(암사동)",
      "name": "(주)라파엘산후조리원",
      "address": "서울특별시 강동구 올림픽로 833, 매일우리아이센타 (암사동)",
      "phone": "",
      "lat": 37.5526331,
      "lng": 127.131218,
      "motherCapacity": 21,
      "infantCapacity": 24,
      "nurseCount": 3,
      "nurseAidCount": 4
    },
    {
      "id": "헤라산후조리원_서울특별시_강동구_양재대로_1498_(길동,_호석빌딩)",
      "name": "헤라산후조리원",
      "address": "서울특별시 강동구 양재대로 1498 (길동, 호석빌딩)",
      "phone": "02-6483-0088",
      "lat": 37.5365033,
      "lng": 127.1430199,
      "motherCapacity": 16,
      "infantCapacity": 16,
      "nurseCount": 4,
      "nurseAidCount": 6
    },
    {
      "id": "궁산후조리원_화곡지점_서울특별시_강서구_화곡로_191_(화곡동)",
      "name": "궁산후조리원 화곡지점",
      "address": "서울특별시 강서구 화곡로 191 (화곡동)",
      "phone": "02-1644-3358",
      "lat": 37.5401891,
      "lng": 126.8442781,
      "motherCapacity": 17,
      "infantCapacity": 17,
      "nurseCount": 3,
      "nurseAidCount": 5
    },
    {
      "id": "리베_산후조리원_강서점_서울특별시_강서구_강서로_198_(화곡동)",
      "name": "리베 산후조리원 강서점",
      "address": "서울특별시 강서구 강서로 198 (화곡동)",
      "phone": "",
      "lat": 37.5411369,
      "lng": 126.8406483,
      "motherCapacity": 18,
      "infantCapacity": 18,
      "nurseCount": 3,
      "nurseAidCount": 5
    },
    {
      "id": "(주)모아드림산후조리원_서울특별시_노원구_상계로5길_9_(상계동,호영빌딩_2-5층)",
      "name": "(주)모아드림산후조리원",
      "address": "서울특별시 노원구 상계로5길 9 (상계동,호영빌딩 2-5층)",
      "phone": "",
      "lat": 37.6542002,
      "lng": 127.0659599,
      "motherCapacity": 20,
      "infantCapacity": 20,
      "nurseCount": 0,
      "nurseAidCount": 0
    },
    {
      "id": "노원라테라산후조리원_서울특별시_노원구_상계로7길_17_(상계동)",
      "name": "노원라테라산후조리원",
      "address": "서울특별시 노원구 상계로7길 17 (상계동)",
      "phone": "02-951-2300",
      "lat": 37.6547333,
      "lng": 127.0669744,
      "motherCapacity": 18,
      "infantCapacity": 18,
      "nurseCount": 3,
      "nurseAidCount": 4
    },
    {
      "id": "(주)더블레스_산후조리원_서울특별시_노원구_노원로_240_(하계동,_백경빌딩)",
      "name": "(주)더블레스 산후조리원",
      "address": "서울특별시 노원구 노원로 240 (하계동, 백경빌딩)",
      "phone": "02-949-2223",
      "lat": 37.6366077,
      "lng": 127.0766536,
      "motherCapacity": 29,
      "infantCapacity": 29,
      "nurseCount": 4,
      "nurseAidCount": 7
    },
    {
      "id": "(주)목동라테라산후조리원_서울특별시_강서구_등촌로_45_(화곡동)",
      "name": "(주)목동라테라산후조리원",
      "address": "서울특별시 강서구 등촌로 45 (화곡동)",
      "phone": "2653-3588",
      "lat": 37.5311652,
      "lng": 126.8654344,
      "motherCapacity": 16,
      "infantCapacity": 16,
      "nurseCount": 3,
      "nurseAidCount": 6
    },
    {
      "id": "맘스밀리산후조리원강서_서울특별시_강서구_양천로_600,_파인블루빌딩_(등촌동)",
      "name": "맘스밀리산후조리원강서",
      "address": "서울특별시 강서구 양천로 600, 파인블루빌딩 (등촌동)",
      "phone": "02-2083-0600",
      "lat": 37.5527178,
      "lng": 126.8667793,
      "motherCapacity": 22,
      "infantCapacity": 22,
      "nurseCount": 4,
      "nurseAidCount": 7
    },
    {
      "id": "리베_산후조리원(마곡점)_서울특별시_강서구_마곡중앙5로_81,_에스비타운_(마곡동)",
      "name": "리베 산후조리원(마곡점)",
      "address": "서울특별시 강서구 마곡중앙5로 81, 에스비타운 (마곡동)",
      "phone": "02-2664-6999",
      "lat": 37.5643255,
      "lng": 126.8206609,
      "motherCapacity": 18,
      "infantCapacity": 18,
      "nurseCount": 4,
      "nurseAidCount": 1
    },
    {
      "id": "르베르쏘_산후조리원_서울특별시_강서구_양천로_354_(가양동)",
      "name": "르베르쏘 산후조리원",
      "address": "서울특별시 강서구 양천로 354 (가양동)",
      "phone": "3661-1115",
      "lat": 37.565098,
      "lng": 126.8438501,
      "motherCapacity": 24,
      "infantCapacity": 24,
      "nurseCount": 4,
      "nurseAidCount": 7
    },
    {
      "id": "제이미_산후조리원_서울특별시_노원구_수락산로_232,_미네르바빌딩_5층_(상계동)",
      "name": "제이미 산후조리원",
      "address": "서울특별시 노원구 수락산로 232, 미네르바빌딩 5층 (상계동)",
      "phone": "02-935-7979",
      "lat": 37.6683088,
      "lng": 127.0549968,
      "motherCapacity": 13,
      "infantCapacity": 13,
      "nurseCount": 3,
      "nurseAidCount": 8
    },
    {
      "id": "로얄사임당산후조리원_서울특별시_남부순환로_1802",
      "name": "로얄사임당산후조리원",
      "address": "서울특별시  남부순환로 1802",
      "phone": "02-873-1112",
      "lat": 37.4784721,
      "lng": 126.9524299,
      "motherCapacity": 15,
      "infantCapacity": 15,
      "nurseCount": 5,
      "nurseAidCount": 6
    },
    {
      "id": "로얄산후조리원(봉천점)_서울특별시_관악구_양녕로_46,_메카플러스_(봉천동)",
      "name": "로얄산후조리원(봉천점)",
      "address": "서울특별시 관악구 양녕로 46, 메카플러스 (봉천동)",
      "phone": "02-889-0700",
      "lat": 37.4833484,
      "lng": 126.9494535,
      "motherCapacity": 9,
      "infantCapacity": 9,
      "nurseCount": 3,
      "nurseAidCount": 4
    },
    {
      "id": "퀸즈마리_산후조리원(가양점)_서울특별시_강서구_양천로_461,_5층_(가양동)",
      "name": "퀸즈마리 산후조리원(가양점)",
      "address": "서울특별시 강서구 양천로 461, 5층 (가양동)",
      "phone": "02-2659-0031",
      "lat": 37.560242,
      "lng": 126.8543342,
      "motherCapacity": 12,
      "infantCapacity": 12,
      "nurseCount": 3,
      "nurseAidCount": 6
    },
    {
      "id": "와이엘산후조리원_서울특별시_노원구_초안산로5길_12_(월계동,월계프라자5층)",
      "name": "와이엘산후조리원",
      "address": "서울특별시 노원구 초안산로5길 12 (월계동,월계프라자5층)",
      "phone": "02-904-8034",
      "lat": 37.6297645,
      "lng": 127.0537617,
      "motherCapacity": 25,
      "infantCapacity": 25,
      "nurseCount": 3,
      "nurseAidCount": 3
    },
    {
      "id": "주식회사_봄날산후조리원_세종점_세종특별자치시_마음로_78,_세종_스마트큐브Ⅱ_6층,7층_(고운동)",
      "name": "주식회사 봄날산후조리원 세종점",
      "address": "세종특별자치시 마음로 78, 세종 스마트큐브Ⅱ 6층,7층 (고운동)",
      "phone": "044-865-9596",
      "lat": 36.50264,
      "lng": 127.2358405,
      "motherCapacity": 20,
      "infantCapacity": 20,
      "nurseCount": 4,
      "nurseAidCount": 10
    },
    {
      "id": "(주)연세산후조리원_세종특별자치시_대평4길_17,_센트럴테라스_6.7층_(대평동)",
      "name": "(주)연세산후조리원",
      "address": "세종특별자치시 대평4길 17, 센트럴테라스 6.7층 (대평동)",
      "phone": "044-862-2079",
      "lat": 36.4703336,
      "lng": 127.2780917,
      "motherCapacity": 29,
      "infantCapacity": 29,
      "nurseCount": 5,
      "nurseAidCount": 7
    },
    {
      "id": "에이치큐브_산후조리원_서울특별시_도봉구_도봉로_604,_에이치큐브병원_7-8층_(창동)",
      "name": "에이치큐브 산후조리원",
      "address": "서울특별시 도봉구 도봉로 604, 에이치큐브병원 7-8층 (창동)",
      "phone": "",
      "lat": 37.6555302,
      "lng": 127.043201,
      "motherCapacity": 20,
      "infantCapacity": 20,
      "nurseCount": 3,
      "nurseAidCount": 15
    },
    {
      "id": "울진군_공공산후조리원_경상북도_울진군_울진읍_현내항길_71,_울진군의료원",
      "name": "울진군 공공산후조리원",
      "address": "경상북도 울진군 울진읍 현내항길 71, 울진군의료원",
      "phone": "054-785-7000",
      "lat": 36.9897171,
      "lng": 129.4124893,
      "motherCapacity": 8,
      "infantCapacity": 8,
      "nurseCount": 3,
      "nurseAidCount": 3
    },
    {
      "id": "벨라니산후조리원_동탄점_경기도_용인시_기흥구_서천로202번길_2,_스마트밸리Ⅱ_4,5층_(농서동)",
      "name": "벨라니산후조리원 동탄점",
      "address": "경기도 용인시 기흥구 서천로202번길 2, 스마트밸리Ⅱ 4,5층 (농서동)",
      "phone": "031-204-2288",
      "lat": 37.2280254,
      "lng": 127.0721661,
      "motherCapacity": 19,
      "infantCapacity": 19,
      "nurseCount": 4,
      "nurseAidCount": 4
    },
    {
      "id": "주식회사_에빠토르베르쏘_산후조리원_서울특별시_강서구_공항대로48길_13-5,_르베르쏘_(화곡동)",
      "name": "주식회사 에빠토르베르쏘 산후조리원",
      "address": "서울특별시 강서구 공항대로48길 13-5, 르베르쏘 (화곡동)",
      "phone": "02-2694-3588",
      "lat": 37.5512489,
      "lng": 126.8576161,
      "motherCapacity": 19,
      "infantCapacity": 19,
      "nurseCount": 7,
      "nurseAidCount": 1
    },
    {
      "id": "트리니티_산후조리원_서울특별시_용산구_청파로20길_95,_서울드래곤시티_C동_39층_(한강로3가)",
      "name": "트리니티 산후조리원",
      "address": "서울특별시 용산구 청파로20길 95, 서울드래곤시티 C동 39층 (한강로3가)",
      "phone": "02-6952-3787",
      "lat": 37.5291199,
      "lng": 126.9645409,
      "motherCapacity": 18,
      "infantCapacity": 18,
      "nurseCount": 3,
      "nurseAidCount": 3
    },
    {
      "id": "김천시공공산후조리원_경상북도_김천시_모암사랑5길_11,_김천시공공산후조리원_(모암동)",
      "name": "김천시공공산후조리원",
      "address": "경상북도 김천시 모암사랑5길 11, 김천시공공산후조리원 (모암동)",
      "phone": "",
      "lat": 36.1200491,
      "lng": 128.1283587,
      "motherCapacity": 12,
      "infantCapacity": 14,
      "nurseCount": 9,
      "nurseAidCount": 3
    },
    {
      "id": "더나아산후조리원_인천광역시_서구_검단로_480,_검단리치웰프라자_7층_(왕길동)",
      "name": "더나아산후조리원",
      "address": "인천광역시 서구 검단로 480, 검단리치웰프라자 7층 (왕길동)",
      "phone": "",
      "lat": 37.5989489,
      "lng": 126.6595197,
      "motherCapacity": 16,
      "infantCapacity": 20,
      "nurseCount": 2,
      "nurseAidCount": 3
    },
    {
      "id": "노블클라쎄_산후조리원_세종특별자치시_한누리대로_2165,_호려울마을7단지_근린생활시설_A동_308-2_~314호_(보람동)",
      "name": "노블클라쎄 산후조리원",
      "address": "세종특별자치시 한누리대로 2165, 호려울마을7단지 근린생활시설 A동 308-2 ~314호 (보람동)",
      "phone": "044-867-3579",
      "lat": 36.4737782,
      "lng": 127.288909,
      "motherCapacity": 10,
      "infantCapacity": 10,
      "nurseCount": 3,
      "nurseAidCount": 4
    },
    {
      "id": "데시미늄BM산후조리원_경기도_성남시_분당구_구미로_191,_아산웰빙프라자_구미동_5층_501호_(구미동)",
      "name": "데시미늄BM산후조리원",
      "address": "경기도 성남시 분당구 구미로 191, 아산웰빙프라자 구미동 5층 501호 (구미동)",
      "phone": "031-718-8813",
      "lat": 37.341372,
      "lng": 127.1298775,
      "motherCapacity": 14,
      "infantCapacity": 14,
      "nurseCount": 3,
      "nurseAidCount": 3
    },
    {
      "id": "서울여성병원산후조리원_대전광역시_서구_문정로_7_(둔산동,_신한일빌딩_외_1(계룡로491번길_20))",
      "name": "서울여성병원산후조리원",
      "address": "대전광역시 서구 문정로 7 (둔산동, 신한일빌딩 외 1(계룡로491번길 20))",
      "phone": "",
      "lat": 36.3425141,
      "lng": 127.3827543,
      "motherCapacity": 65,
      "infantCapacity": 61,
      "nurseCount": 10,
      "nurseAidCount": 30
    },
    {
      "id": "모태산후조리원_대전광역시_서구_대덕대로_191,_4층_(둔산동)",
      "name": "모태산후조리원",
      "address": "대전광역시 서구 대덕대로 191, 4층 (둔산동)",
      "phone": "042-486-1114",
      "lat": 36.3474517,
      "lng": 127.3794815,
      "motherCapacity": 7,
      "infantCapacity": 7,
      "nurseCount": 4,
      "nurseAidCount": 9
    },
    {
      "id": "더블유산후조리원_대전광역시_서구_문정로48번길_70_(탄방동)",
      "name": "더블유산후조리원",
      "address": "대전광역시 서구 문정로48번길 70 (탄방동)",
      "phone": "042-485-0001",
      "lat": 36.340677,
      "lng": 127.386203,
      "motherCapacity": 27,
      "infantCapacity": 28,
      "nurseCount": 3,
      "nurseAidCount": 8
    },
    {
      "id": "보람산후조리원_경상남도_진주시_진양호로_255,_5층_(평거동)",
      "name": "보람산후조리원",
      "address": "경상남도 진주시 진양호로 255, 5층 (평거동)",
      "phone": "747-3585",
      "lat": 35.1736756,
      "lng": 128.0646936,
      "motherCapacity": 18,
      "infantCapacity": 18,
      "nurseCount": 2,
      "nurseAidCount": 7
    },
    {
      "id": "참조은산후조리원_경상남도_진주시_진양호로_317,_6~9층_(신안동)",
      "name": "참조은산후조리원",
      "address": "경상남도 진주시 진양호로 317, 6~9층 (신안동)",
      "phone": "742-8822",
      "lat": 35.178596,
      "lng": 128.0682325,
      "motherCapacity": 45,
      "infantCapacity": 46,
      "nurseCount": 1,
      "nurseAidCount": 5
    },
    {
      "id": "미래여성산후조리원_경상남도_진주시_진주대로_957,_5,6,7,8층_(강남동)",
      "name": "미래여성산후조리원",
      "address": "경상남도 진주시 진주대로 957, 5,6,7,8층 (강남동)",
      "phone": "760-8093",
      "lat": 35.1823073,
      "lng": 128.0896782,
      "motherCapacity": 30,
      "infantCapacity": 30,
      "nurseCount": 4,
      "nurseAidCount": 4
    },
    {
      "id": "미즈모아_산후조리원_경상남도_양산시_양산역6길_9,_BYC빌딩동_(중부동)",
      "name": "미즈모아 산후조리원",
      "address": "경상남도 양산시 양산역6길 9, BYC빌딩동 (중부동)",
      "phone": "055-365-0202",
      "lat": 35.3345269,
      "lng": 129.0293365,
      "motherCapacity": 16,
      "infantCapacity": 17,
      "nurseCount": 2,
      "nurseAidCount": 5
    },
    {
      "id": "에델산후조리원_경상남도_양산시_물금읍_야리로_127",
      "name": "에델산후조리원",
      "address": "경상남도 양산시 물금읍 야리로 127",
      "phone": "055-912-0700",
      "lat": 35.3083146,
      "lng": 129.0118679,
      "motherCapacity": 33,
      "infantCapacity": 33,
      "nurseCount": 2,
      "nurseAidCount": 5
    },
    {
      "id": "우리산후조리원_경상남도_김해시_내외중앙로_91_(내동)",
      "name": "우리산후조리원",
      "address": "경상남도 김해시 내외중앙로 91 (내동)",
      "phone": "321-0114",
      "lat": 35.2351002,
      "lng": 128.869264,
      "motherCapacity": 25,
      "infantCapacity": 25,
      "nurseCount": 2,
      "nurseAidCount": 3
    },
    {
      "id": "맘스드림산후조리원_경상남도_김해시_경원로55번길_12_(내동)",
      "name": "맘스드림산후조리원",
      "address": "경상남도 김해시 경원로55번길 12 (내동)",
      "phone": "",
      "lat": 35.2351517,
      "lng": 128.8688395,
      "motherCapacity": 0,
      "infantCapacity": 0,
      "nurseCount": 3,
      "nurseAidCount": 13
    },
    {
      "id": "더원산후조리원_경상남도_김해시_번화1로80번길_5,_9~10층_(대청동)",
      "name": "더원산후조리원",
      "address": "경상남도 김해시 번화1로80번길 5, 9~10층 (대청동)",
      "phone": "055-323-2701",
      "lat": 35.1916294,
      "lng": 128.8022534,
      "motherCapacity": 21,
      "infantCapacity": 12,
      "nurseCount": 3,
      "nurseAidCount": 3
    },
    {
      "id": "오즈산후조리원_경상남도_김해시_계동로_203_(대청동)",
      "name": "오즈산후조리원",
      "address": "경상남도 김해시 계동로 203 (대청동)",
      "phone": "311-0202",
      "lat": 35.1871646,
      "lng": 128.8026414,
      "motherCapacity": 26,
      "infantCapacity": 26,
      "nurseCount": 4,
      "nurseAidCount": 10
    },
    {
      "id": "라임산후조리원_경기도_시흥시_월곶해안로_171_(월곶동)",
      "name": "라임산후조리원",
      "address": "경기도 시흥시 월곶해안로 171 (월곶동)",
      "phone": "031-316-8800",
      "lat": 37.3854449,
      "lng": 126.740871,
      "motherCapacity": 20,
      "infantCapacity": 20,
      "nurseCount": 3,
      "nurseAidCount": 8
    },
    {
      "id": "(주)결한방산후조리원_김포점_경기도_김포시_김포한강1로_247,_703호_(운양동,_김포운양헤리움타운)",
      "name": "(주)결한방산후조리원 김포점",
      "address": "경기도 김포시 김포한강1로 247, 703호 (운양동, 김포운양헤리움타운)",
      "phone": "031-991-9933",
      "lat": 37.6514749,
      "lng": 126.6869363,
      "motherCapacity": 19,
      "infantCapacity": 21,
      "nurseCount": 2,
      "nurseAidCount": 3
    },
    {
      "id": "조은미래산후조리원_경기도_김포시_김포한강8로_396,_7층_(구래동)",
      "name": "조은미래산후조리원",
      "address": "경기도 김포시 김포한강8로 396, 7층 (구래동)",
      "phone": "031-992-6622",
      "lat": 37.6404855,
      "lng": 126.6271782,
      "motherCapacity": 18,
      "infantCapacity": 18,
      "nurseCount": 3,
      "nurseAidCount": 5
    },
    {
      "id": "드이자르_산후조리원_세종특별자치시_갈매로_351,_에비뉴힐비_3층_3104-1,_3105~3107,_3114~3124호_(어진동)",
      "name": "드이자르 산후조리원",
      "address": "세종특별자치시 갈매로 351, 에비뉴힐비 3층 3104-1, 3105~3107, 3114~3124호 (어진동)",
      "phone": "044-905-1004",
      "lat": 36.4922139,
      "lng": 127.264278,
      "motherCapacity": 26,
      "infantCapacity": 26,
      "nurseCount": 3,
      "nurseAidCount": 10
    },
    {
      "id": "르보아산후조리원_세종특별자치시_한누리대로_165,_세종메디피아_8층_(나성동)",
      "name": "르보아산후조리원",
      "address": "세종특별자치시 한누리대로 165, 세종메디피아 8층 (나성동)",
      "phone": "044-716-1004",
      "lat": 36.4770094,
      "lng": 127.2641501,
      "motherCapacity": 18,
      "infantCapacity": 18,
      "nurseCount": 3,
      "nurseAidCount": 6
    },
    {
      "id": "메종플로라산후조리원_세종특별자치시_한누리대로_2265,_세종메디컬센터_5~6층층_일부호_(대평동)",
      "name": "메종플로라산후조리원",
      "address": "세종특별자치시 한누리대로 2265, 세종메디컬센터 5~6층층 일부호 (대평동)",
      "phone": "044-866-3582",
      "lat": 36.4691722,
      "lng": 127.2793185,
      "motherCapacity": 25,
      "infantCapacity": 25,
      "nurseCount": 2,
      "nurseAidCount": 9
    },
    {
      "id": "상주시공공산후조리원_경상북도_상주시_천봉서로_124,_상주시공공산후조리원_(연원동)",
      "name": "상주시공공산후조리원",
      "address": "경상북도 상주시 천봉서로 124, 상주시공공산후조리원 (연원동)",
      "phone": "054-535-0035",
      "lat": 36.4200071,
      "lng": 128.1391212,
      "motherCapacity": 13,
      "infantCapacity": 10,
      "nurseCount": 6,
      "nurseAidCount": 5
    },
    {
      "id": "쉬즈메디산후조리원_경기도_수원시_팔달구_경수대로_527_(인계동)",
      "name": "쉬즈메디산후조리원",
      "address": "경기도 수원시 팔달구 경수대로 527 (인계동)",
      "phone": "031-235-7337",
      "lat": 37.2702698,
      "lng": 127.0306704,
      "motherCapacity": 44,
      "infantCapacity": 47,
      "nurseCount": 8,
      "nurseAidCount": 15
    },
    {
      "id": "수원제일산후조리원_경기도_수원시_팔달구_덕영대로_691-12_(화서동)",
      "name": "수원제일산후조리원",
      "address": "경기도 수원시 팔달구 덕영대로 691-12 (화서동)",
      "phone": "031-253-3011",
      "lat": 37.2822797,
      "lng": 126.9928056,
      "motherCapacity": 9,
      "infantCapacity": 9,
      "nurseCount": 2,
      "nurseAidCount": 4
    },
    {
      "id": "예울_산후조리원_전라남도_여수시_신월로_114,_예울병원_(웅천동)",
      "name": "예울 산후조리원",
      "address": "전라남도 여수시 신월로 114, 예울병원 (웅천동)",
      "phone": "061-655-2323",
      "lat": 34.744922,
      "lng": 127.6824593,
      "motherCapacity": 12,
      "infantCapacity": 12,
      "nurseCount": 2,
      "nurseAidCount": 5
    },
    {
      "id": "노블레스산후조리원_충청남도_당진시_남부로_276,_명성빌딩_3~5층_(수청동)",
      "name": "노블레스산후조리원",
      "address": "충청남도 당진시 남부로 276, 명성빌딩 3~5층 (수청동)",
      "phone": "041-358-0111",
      "lat": 36.8831857,
      "lng": 126.6491464,
      "motherCapacity": 6,
      "infantCapacity": 6,
      "nurseCount": 2,
      "nurseAidCount": 3
    },
    {
      "id": "퀸즈그로브_산후조리원_인천광역시_연수구_하모니로188번길_8,_6-7층_(송도동)",
      "name": "퀸즈그로브 산후조리원",
      "address": "인천광역시 연수구 하모니로188번길 8, 6-7층 (송도동)",
      "phone": "0507-1441-0124",
      "lat": 37.3788716,
      "lng": 126.6427547,
      "motherCapacity": 27,
      "infantCapacity": 27,
      "nurseCount": 3,
      "nurseAidCount": 3
    },
    {
      "id": "산후조리원효문재_경상북도_구미시_삼일로_16_(진평동)",
      "name": "산후조리원효문재",
      "address": "경상북도 구미시 삼일로 16 (진평동)",
      "phone": "",
      "lat": 36.1034517,
      "lng": 128.4201029,
      "motherCapacity": 13,
      "infantCapacity": 13,
      "nurseCount": 2,
      "nurseAidCount": 6
    },
    {
      "id": "sk산후조리원_서울특별시_서초구_동작대로_172,_왕실빌딩_3층_50호_(방배동)",
      "name": "sk산후조리원",
      "address": "서울특별시 서초구 동작대로 172, 왕실빌딩 3층 50호 (방배동)",
      "phone": "02-592-0020",
      "lat": 37.4892094,
      "lng": 126.9853469,
      "motherCapacity": 14,
      "infantCapacity": 14,
      "nurseCount": 4,
      "nurseAidCount": 12
    },
    {
      "id": "로열프린세스산후조리원_제주특별자치도_제주시_과원로_70,_2~3층_(연동)",
      "name": "로열프린세스산후조리원",
      "address": "제주특별자치도 제주시 과원로 70, 2~3층 (연동)",
      "phone": 647488855,
      "lat": 33.4723438,
      "lng": 126.4930915,
      "motherCapacity": 42,
      "infantCapacity": 42,
      "nurseCount": 4,
      "nurseAidCount": 15
    },
    {
      "id": "제이에스_산후조리원_경기도_안양시_동안구_흥안대로94번길_68,_3층_(호계동,_양우_내안애_팰리스)",
      "name": "제이에스 산후조리원",
      "address": "경기도 안양시 동안구 흥안대로94번길 68, 3층 (호계동, 양우 내안애 팰리스)",
      "phone": "031-360-3980",
      "lat": 37.3637028,
      "lng": 126.9591243,
      "motherCapacity": 25,
      "infantCapacity": 30,
      "nurseCount": 3,
      "nurseAidCount": 3
    },
    {
      "id": "동탄제일제이에스_산후조리원_경기도_화성시_동탄영천로_118,_행복프라자_2층~5층_(영천동)",
      "name": "동탄제일제이에스 산후조리원",
      "address": "경기도 화성시 동탄영천로 118, 행복프라자 2층~5층 (영천동)",
      "phone": "031-548-1809",
      "lat": 37.2104183,
      "lng": 127.1054835,
      "motherCapacity": 19,
      "infantCapacity": 19,
      "nurseCount": 3,
      "nurseAidCount": 3
    },
    {
      "id": "주식회사_더홈_산후조리원_경기도_부천시_원미구_길주로_251_(중동)",
      "name": "주식회사 더홈 산후조리원",
      "address": "경기도 부천시 원미구 길주로 251 (중동)",
      "phone": "032-324-3393",
      "lat": 37.5014801,
      "lng": 126.7726378,
      "motherCapacity": 18,
      "infantCapacity": 18,
      "nurseCount": 3,
      "nurseAidCount": 7
    },
    {
      "id": "주식회사로엔산후조리원_경기도_부천시_원미구_길주로_307,_로얄프라자_701호_(중동)",
      "name": "주식회사로엔산후조리원",
      "address": "경기도 부천시 원미구 길주로 307, 로얄프라자 701호 (중동)",
      "phone": 323242100,
      "lat": 37.5006967,
      "lng": 126.778844,
      "motherCapacity": 18,
      "infantCapacity": 20,
      "nurseCount": 2,
      "nurseAidCount": 3
    },
    {
      "id": "(주)서울여성_산후조리원_경기도_부천시_원미구_길주로_84,_서울여성병원_9,10층_(상동)",
      "name": "(주)서울여성 산후조리원",
      "address": "경기도 부천시 원미구 길주로 84, 서울여성병원 9,10층 (상동)",
      "phone": "032-230-7200",
      "lat": 37.5024443,
      "lng": 126.753668,
      "motherCapacity": 42,
      "infantCapacity": 42,
      "nurseCount": 6,
      "nurseAidCount": 17
    },
    {
      "id": "삼성미래_산후조리원_경기도_부천시_원미구_부흥로307번길_23_(중동)",
      "name": "삼성미래 산후조리원",
      "address": "경기도 부천시 원미구 부흥로307번길 23 (중동)",
      "phone": "",
      "lat": 37.4926867,
      "lng": 126.7785402,
      "motherCapacity": 24,
      "infantCapacity": 24,
      "nurseCount": 0,
      "nurseAidCount": 0
    },
    {
      "id": "주식회사_초앤유_산후조리원_경기도_부천시_원미구_중동로248번길_19_(중동)",
      "name": "주식회사 초앤유 산후조리원",
      "address": "경기도 부천시 원미구 중동로248번길 19 (중동)",
      "phone": "",
      "lat": 37.4990887,
      "lng": 126.771848,
      "motherCapacity": 15,
      "infantCapacity": 15,
      "nurseCount": 0,
      "nurseAidCount": 0
    },
    {
      "id": "서대문구_공공산후조리원_품애가득_서울특별시_서대문구_증가로30길_45,_서대문_공공산후조리원_(북가좌동)",
      "name": "서대문구 공공산후조리원 품애가득",
      "address": "서울특별시 서대문구 증가로30길 45, 서대문 공공산후조리원 (북가좌동)",
      "phone": "02-3621-1050",
      "lat": 37.582162,
      "lng": 126.9161294,
      "motherCapacity": 12,
      "infantCapacity": 12,
      "nurseCount": 8,
      "nurseAidCount": 9
    },
    {
      "id": "(주)빛고을산후조리원_광주광역시_북구_하서로_395,_5.6.7층_(양산동,_빛고을여성병원)",
      "name": "(주)빛고을산후조리원",
      "address": "광주광역시 북구 하서로 395, 5.6.7층 (양산동, 빛고을여성병원)",
      "phone": "062-602-9200",
      "lat": 35.2073339,
      "lng": 126.8756881,
      "motherCapacity": 53,
      "infantCapacity": 53,
      "nurseCount": 7,
      "nurseAidCount": 25
    },
    {
      "id": "디엘린산후조리원_경기도_용인시_수지구_성복2로_348_(성복동)",
      "name": "디엘린산후조리원",
      "address": "경기도 용인시 수지구 성복2로 348 (성복동)",
      "phone": "031-263-8855",
      "lat": 37.3170969,
      "lng": 127.0529747,
      "motherCapacity": 19,
      "infantCapacity": 19,
      "nurseCount": 3,
      "nurseAidCount": 1
    },
    {
      "id": "청주미즈맘산후조리원_충청북도_청주시_흥덕구_가경로_16-2,_5~6층_(가경동)",
      "name": "청주미즈맘산후조리원",
      "address": "충청북도 청주시 흥덕구 가경로 16-2, 5~6층 (가경동)",
      "phone": "043-237-2201",
      "lat": 36.6143271,
      "lng": 127.4460334,
      "motherCapacity": 20,
      "infantCapacity": 20,
      "nurseCount": 4,
      "nurseAidCount": 10
    },
    {
      "id": "미즈산후조리원_충청북도_청주시_청원구_오창읍_중심상업로_17,_오창프라자_7층",
      "name": "미즈산후조리원",
      "address": "충청북도 청주시 청원구 오창읍 중심상업로 17, 오창프라자 7층",
      "phone": "043-241-3030",
      "lat": 36.7095444,
      "lng": 127.431393,
      "motherCapacity": 8,
      "infantCapacity": 8,
      "nurseCount": 2,
      "nurseAidCount": 9
    },
    {
      "id": "삼성산후조리원원_충청북도_청주시_상당구_용암북로160번길_34-7_(용암동)",
      "name": "삼성산후조리원원",
      "address": "충청북도 청주시 상당구 용암북로160번길 34-7 (용암동)",
      "phone": "043-291-3582",
      "lat": 36.618174,
      "lng": 127.5176136,
      "motherCapacity": 28,
      "infantCapacity": 28,
      "nurseCount": 4,
      "nurseAidCount": 12
    },
    {
      "id": "다나산후조리원_충청북도_청주시_청원구_충청대로_179_(주중동,_청주다나여성병원)",
      "name": "다나산후조리원",
      "address": "충청북도 청주시 청원구 충청대로 179 (주중동, 청주다나여성병원)",
      "phone": "043-284-3535",
      "lat": 36.6691737,
      "lng": 127.4979109,
      "motherCapacity": 33,
      "infantCapacity": 33,
      "nurseCount": 3,
      "nurseAidCount": 17
    },
    {
      "id": "하안유산후조리원_충청북도_청주시_서원구_신화로_50_(성화동,_4-5층)",
      "name": "하안유산후조리원",
      "address": "충청북도 청주시 서원구 신화로 50 (성화동, 4-5층)",
      "phone": "234-6201",
      "lat": 36.6162254,
      "lng": 127.4576202,
      "motherCapacity": 38,
      "infantCapacity": 38,
      "nurseCount": 4,
      "nurseAidCount": 18
    },
    {
      "id": "곽생로여성병원부설산후조리원_경기도_성남시_수정구_수정로73번길_16-27_(태평동)",
      "name": "곽생로여성병원부설산후조리원",
      "address": "경기도 성남시 수정구 수정로73번길 16-27 (태평동)",
      "phone": "723-7266",
      "lat": 37.4378592,
      "lng": 127.1311905,
      "motherCapacity": 55,
      "infantCapacity": 55,
      "nurseCount": 8,
      "nurseAidCount": 28
    },
    {
      "id": "분당차병원_산후조리원_경기도_성남시_분당구_야탑로65번길_16_(야탑동)",
      "name": "분당차병원 산후조리원",
      "address": "경기도 성남시 분당구 야탑로65번길 16 (야탑동)",
      "phone": "780-2999",
      "lat": 37.4083583,
      "lng": 127.1284625,
      "motherCapacity": 24,
      "infantCapacity": 27,
      "nurseCount": 11,
      "nurseAidCount": 0
    },
    {
      "id": "미즈피아산후조리원_경기도_안산시_상록구_샘골로_112_(본오동)",
      "name": "미즈피아산후조리원",
      "address": "경기도 안산시 상록구 샘골로 112 (본오동)",
      "phone": "",
      "lat": 37.2909401,
      "lng": 126.8653211,
      "motherCapacity": 10,
      "infantCapacity": 10,
      "nurseCount": 2,
      "nurseAidCount": 8
    },
    {
      "id": "라움산후조리원_경기도_안산시_단원구_광덕1로_195,_6층_601호_(고잔동,_광장타워)",
      "name": "라움산후조리원",
      "address": "경기도 안산시 단원구 광덕1로 195, 6층 601호 (고잔동, 광장타워)",
      "phone": "031-485-5544",
      "lat": 37.3053419,
      "lng": 126.8337078,
      "motherCapacity": 18,
      "infantCapacity": 18,
      "nurseCount": 5,
      "nurseAidCount": 12
    },
    {
      "id": "산후조리원_라크렘_경기도_성남시_분당구_새마을로_231,_율동갤러리_(율동)",
      "name": "산후조리원 라크렘",
      "address": "경기도 성남시 분당구 새마을로 231, 율동갤러리 (율동)",
      "phone": "031-706-9988",
      "lat": 37.384535,
      "lng": 127.1565526,
      "motherCapacity": 19,
      "infantCapacity": 21,
      "nurseCount": 10,
      "nurseAidCount": 0
    },
    {
      "id": "마더러브_산후조리원_경기도_구리시_아차산로_499,_B동_401호_(교문동,중앙하이츠)",
      "name": "마더러브 산후조리원",
      "address": "경기도 구리시 아차산로 499, B동 401호 (교문동,중앙하이츠)",
      "phone": "564-3535",
      "lat": 37.5969018,
      "lng": 127.1321643,
      "motherCapacity": 9,
      "infantCapacity": 9,
      "nurseCount": 2,
      "nurseAidCount": 5
    },
    {
      "id": "(주)디아망산후조리원_분당서현점_경기도_성남시_분당구_중앙공원로40번길_4,_307-309호_(서현동,_현대카스올림픽골프파크)",
      "name": "(주)디아망산후조리원 분당서현점",
      "address": "경기도 성남시 분당구 중앙공원로40번길 4, 307-309호 (서현동, 현대카스올림픽골프파크)",
      "phone": "031-701-3535",
      "lat": 37.3775201,
      "lng": 127.1315616,
      "motherCapacity": 17,
      "infantCapacity": 17,
      "nurseCount": 4,
      "nurseAidCount": 4
    },
    {
      "id": "엄마손_산후조리원_경기도_성남시_분당구_야탑로_32_(야탑동)",
      "name": "엄마손 산후조리원",
      "address": "경기도 성남시 분당구 야탑로 32 (야탑동)",
      "phone": "031-703-5550",
      "lat": 37.4059371,
      "lng": 127.1247266,
      "motherCapacity": 13,
      "infantCapacity": 13,
      "nurseCount": "",
      "nurseAidCount": ""
    },
    {
      "id": "디에르산후조리원_경기도_성남시_분당구_정자일로_121_(정자동,_분당더샾스타파크_상가동_지상2층)",
      "name": "디에르산후조리원",
      "address": "경기도 성남시 분당구 정자일로 121 (정자동, 분당더샾스타파크 상가동 지상2층)",
      "phone": "031-717-7787",
      "lat": 37.3581613,
      "lng": 127.1072704,
      "motherCapacity": 20,
      "infantCapacity": 20,
      "nurseCount": 4,
      "nurseAidCount": 3
    },
    {
      "id": "조은산후조리원_경기도_남양주시_경춘로1256번길_9_(평내동,403호~408호)",
      "name": "조은산후조리원",
      "address": "경기도 남양주시 경춘로1256번길 9 (평내동,403호~408호)",
      "phone": "",
      "lat": 37.6433169,
      "lng": 127.2375109,
      "motherCapacity": 20,
      "infantCapacity": 20,
      "nurseCount": 3,
      "nurseAidCount": 8
    },
    {
      "id": "분당제일_산후조리원_경기도_성남시_분당구_서현로180번길_29_(서현동)",
      "name": "분당제일 산후조리원",
      "address": "경기도 성남시 분당구 서현로180번길 29 (서현동)",
      "phone": "031-781-3631",
      "lat": 37.3840167,
      "lng": 127.1237036,
      "motherCapacity": 19,
      "infantCapacity": 19,
      "nurseCount": 8,
      "nurseAidCount": 6
    },
    {
      "id": "맘스파크산후조리원_경기도_성남시_중원구_자혜로17번길_16,_3,_4층_301,_304,_305,_401_호_(은행동,_현대아파트)",
      "name": "맘스파크산후조리원",
      "address": "경기도 성남시 중원구 자혜로17번길 16, 3, 4층 301, 304, 305, 401 호 (은행동, 현대아파트)",
      "phone": "",
      "lat": 37.4491178,
      "lng": 127.1655641,
      "motherCapacity": 21,
      "infantCapacity": 21,
      "nurseCount": 3,
      "nurseAidCount": 2
    },
    {
      "id": "(주)마벨르산후조리원_판교점_경기도_성남시_분당구_운중로_128,_마크시티그린_8,9층_(운중동)",
      "name": "(주)마벨르산후조리원 판교점",
      "address": "경기도 성남시 분당구 운중로 128, 마크시티그린 8,9층 (운중동)",
      "phone": "031-702-0077",
      "lat": 37.3884998,
      "lng": 127.0794651,
      "motherCapacity": 16,
      "infantCapacity": 16,
      "nurseCount": 4,
      "nurseAidCount": 3
    },
    {
      "id": "위례포르투나산후조리원_경기도_성남시_수정구_위례광장로_41_(창곡동)",
      "name": "위례포르투나산후조리원",
      "address": "경기도 성남시 수정구 위례광장로 41 (창곡동)",
      "phone": "031-756-0006",
      "lat": 37.4652516,
      "lng": 127.1422445,
      "motherCapacity": 16,
      "infantCapacity": 16,
      "nurseCount": 3,
      "nurseAidCount": 3
    },
    {
      "id": "베베산후조리원_경기도_구리시_검배로_36_(수택동,현주아이프랜드_상가_6층)",
      "name": "베베산후조리원",
      "address": "경기도 구리시 검배로 36 (수택동,현주아이프랜드 상가 6층)",
      "phone": "031-567-0012",
      "lat": 37.5953269,
      "lng": 127.1451037,
      "motherCapacity": 16,
      "infantCapacity": 16,
      "nurseCount": 4,
      "nurseAidCount": 4
    },
    {
      "id": "(주)오르빛산후조리원_경기도_성남시_수정구_수정로171번길_7-1_(태평동)",
      "name": "(주)오르빛산후조리원",
      "address": "경기도 성남시 수정구 수정로171번길 7-1 (태평동)",
      "phone": "721-5700",
      "lat": 37.4407905,
      "lng": 127.1405044,
      "motherCapacity": 14,
      "infantCapacity": 14,
      "nurseCount": 3,
      "nurseAidCount": 3
    },
    {
      "id": "리움_산후조리원_경기도_성남시_분당구_판교역로192번길_14-2,_골드타워_7층_(삼평동)",
      "name": "리움 산후조리원",
      "address": "경기도 성남시 분당구 판교역로192번길 14-2, 골드타워 7층 (삼평동)",
      "phone": "031-8016-1173",
      "lat": 37.3946944,
      "lng": 127.1141518,
      "motherCapacity": 28,
      "infantCapacity": 28,
      "nurseCount": 5,
      "nurseAidCount": 7
    },
    {
      "id": "플로라산후조리원_경기도_성남시_분당구_새마을로165번길_34_(율동)",
      "name": "플로라산후조리원",
      "address": "경기도 성남시 분당구 새마을로165번길 34 (율동)",
      "phone": "031-702-3377",
      "lat": 37.3834169,
      "lng": 127.1518124,
      "motherCapacity": 10,
      "infantCapacity": 10,
      "nurseCount": 4,
      "nurseAidCount": 3
    },
    {
      "id": "포스피탈_림_산후조리원_경기도_성남시_분당구_서현로180번길_13,_4층_(서현동)",
      "name": "포스피탈 림 산후조리원",
      "address": "경기도 성남시 분당구 서현로180번길 13, 4층 (서현동)",
      "phone": "603-9921",
      "lat": 37.3850921,
      "lng": 127.1249727,
      "motherCapacity": 22,
      "infantCapacity": 22,
      "nurseCount": 3,
      "nurseAidCount": 3
    },
    {
      "id": "(주)드_이자르_산후조리원_경기도_성남시_수정구_성남대로_1202_(수진동,_유천빌딩)",
      "name": "(주)드 이자르 산후조리원",
      "address": "경기도 성남시 수정구 성남대로 1202 (수진동, 유천빌딩)",
      "phone": "031-757-6161",
      "lat": 37.4342574,
      "lng": 127.1308343,
      "motherCapacity": 21,
      "infantCapacity": 21,
      "nurseCount": 4,
      "nurseAidCount": 8
    },
    {
      "id": "주식회사_한빛여성병원산후조리원_경기도_안산시_단원구_광덕동로_53_(고잔동,5~6층)",
      "name": "주식회사 한빛여성병원산후조리원",
      "address": "경기도 안산시 단원구 광덕동로 53 (고잔동,5~6층)",
      "phone": "",
      "lat": 37.3063217,
      "lng": 126.8343722,
      "motherCapacity": 20,
      "infantCapacity": 20,
      "nurseCount": 3,
      "nurseAidCount": 13
    },
    {
      "id": "더_퍼스트_산후조리원_경기도_남양주시_별내2로_74_(별내동,_제이에스타워4층)",
      "name": "더 퍼스트 산후조리원",
      "address": "경기도 남양주시 별내2로 74 (별내동, 제이에스타워4층)",
      "phone": "031-838-1004",
      "lat": 37.6441158,
      "lng": 127.1276467,
      "motherCapacity": 20,
      "infantCapacity": 20,
      "nurseCount": 3,
      "nurseAidCount": 3
    },
    {
      "id": "주식회사_맘편한산후조리원_경기도_안산시_단원구_원포공원2로_35_(초지동,메가쇼핑1,_5층_전체)",
      "name": "주식회사 맘편한산후조리원",
      "address": "경기도 안산시 단원구 원포공원2로 35 (초지동,메가쇼핑1, 5층 전체)",
      "phone": "031-411-3552",
      "lat": 37.2989188,
      "lng": 126.815648,
      "motherCapacity": 24,
      "infantCapacity": 24,
      "nurseCount": 4,
      "nurseAidCount": 14
    },
    {
      "id": "신데렐라_산후조리원_주식회사_경기도_성남시_수정구_수정로_80_(수진동)",
      "name": "신데렐라 산후조리원 주식회사",
      "address": "경기도 성남시 수정구 수정로 80 (수진동)",
      "phone": "723-7776",
      "lat": 37.4371309,
      "lng": 127.1316661,
      "motherCapacity": 18,
      "infantCapacity": 18,
      "nurseCount": 10,
      "nurseAidCount": 5
    },
    {
      "id": "메디피아산후조리원_경기도_남양주시_경춘로_1511_(호평동,메디피아ㅣ_빌딩_4층(2층일부))",
      "name": "메디피아산후조리원",
      "address": "경기도 남양주시 경춘로 1511 (호평동,메디피아ㅣ 빌딩 4층(2층일부))",
      "phone": "",
      "lat": 37.6528069,
      "lng": 127.261676,
      "motherCapacity": 10,
      "infantCapacity": 7,
      "nurseCount": 2,
      "nurseAidCount": 7
    },
    {
      "id": "예진산후조리원_경기도_시흥시_정왕대로_78,_4층_406호_(정왕동,_트윈프라자)",
      "name": "예진산후조리원",
      "address": "경기도 시흥시 정왕대로 78, 4층 406호 (정왕동, 트윈프라자)",
      "phone": "031-431-1134",
      "lat": 37.3504542,
      "lng": 126.7270931,
      "motherCapacity": 20,
      "infantCapacity": 20,
      "nurseCount": 3,
      "nurseAidCount": 10
    },
    {
      "id": "세창의료재단우성여성병원산후조리원_경기도_안산시_단원구_고잔로_58-10_(고잔동,5층전체,_7층일부)",
      "name": "세창의료재단우성여성병원산후조리원",
      "address": "경기도 안산시 단원구 고잔로 58-10 (고잔동,5층전체, 7층일부)",
      "phone": "412-3000",
      "lat": 37.3155432,
      "lng": 126.8340738,
      "motherCapacity": 24,
      "infantCapacity": 24,
      "nurseCount": 4,
      "nurseAidCount": 9
    },
    {
      "id": "리베_산후조리원_구리점_경기도_구리시_벌말로_145_(토평동)",
      "name": "리베 산후조리원 구리점",
      "address": "경기도 구리시 벌말로 145 (토평동)",
      "phone": "031-555-8844",
      "lat": 37.5867312,
      "lng": 127.1508272,
      "motherCapacity": 18,
      "infantCapacity": 18,
      "nurseCount": 3,
      "nurseAidCount": 10
    },
    {
      "id": "마리본산후조리원_경기도_구리시_건원대로33번길_4_(인창동)",
      "name": "마리본산후조리원",
      "address": "경기도 구리시 건원대로33번길 4 (인창동)",
      "phone": 315512700,
      "lat": 37.6014538,
      "lng": 127.1419319,
      "motherCapacity": 19,
      "infantCapacity": 19,
      "nurseCount": 2,
      "nurseAidCount": 9
    },
    {
      "id": "분당더팰리스_산후조리원_경기도_성남시_분당구_황새울로200번길_36,_4층_(수내동,_분당_동부루트빌딩)",
      "name": "분당더팰리스 산후조리원",
      "address": "경기도 성남시 분당구 황새울로200번길 36, 4층 (수내동, 분당 동부루트빌딩)",
      "phone": "711-6169",
      "lat": 37.3745005,
      "lng": 127.1162059,
      "motherCapacity": 16,
      "infantCapacity": 16,
      "nurseCount": 0,
      "nurseAidCount": 0
    },
    {
      "id": "삼육서울병원부설산후조리원_서울특별시_동대문구_망우로_82,_B1,1,2층_(휘경동)",
      "name": "삼육서울병원부설산후조리원",
      "address": "서울특별시 동대문구 망우로 82, B1,1,2층 (휘경동)",
      "phone": "2210-3399/3439",
      "lat": 37.586527,
      "lng": 127.0665512,
      "motherCapacity": 24,
      "infantCapacity": 24,
      "nurseCount": 9,
      "nurseAidCount": 5
    },
    {
      "id": "린아미에산후조리원_서울특별시_동대문구_장한로_119_(장안동,삼성쉐르빌2층)",
      "name": "린아미에산후조리원",
      "address": "서울특별시 동대문구 장한로 119 (장안동,삼성쉐르빌2층)",
      "phone": "2246-2001",
      "lat": 37.5688743,
      "lng": 127.0719683,
      "motherCapacity": 17,
      "infantCapacity": 17,
      "nurseCount": 5,
      "nurseAidCount": 3
    },
    {
      "id": "린산후조리원_서울특별시_동대문구_답십리로_268,_해림빌딩_3,4층_(장안동)",
      "name": "린산후조리원",
      "address": "서울특별시 동대문구 답십리로 268, 해림빌딩 3,4층 (장안동)",
      "phone": "2243-5353",
      "lat": 37.5694147,
      "lng": 127.072259,
      "motherCapacity": 19,
      "infantCapacity": 20,
      "nurseCount": 3,
      "nurseAidCount": 11
    },
    {
      "id": "베베리타산후조리원_서울특별시_동대문구_답십리로_269,_7,8층_(장안동)",
      "name": "베베리타산후조리원",
      "address": "서울특별시 동대문구 답십리로 269, 7,8층 (장안동)",
      "phone": "2213-5889",
      "lat": 37.5699011,
      "lng": 127.0725215,
      "motherCapacity": 15,
      "infantCapacity": 15,
      "nurseCount": 4,
      "nurseAidCount": 6
    },
    {
      "id": "오브산후조리원_서울특별시_마포구_월드컵북로_497,_3층301호,4,5층_(상암동)",
      "name": "오브산후조리원",
      "address": "서울특별시 마포구 월드컵북로 497, 3층301호,4,5층 (상암동)",
      "phone": "02-306-2617",
      "lat": 37.5816401,
      "lng": 126.8815873,
      "motherCapacity": 19,
      "infantCapacity": 19,
      "nurseCount": 4,
      "nurseAidCount": 8
    },
    {
      "id": "청화병원부설산후조리원_서울특별시_동작구_장승배기로_108_(노량진동,_청화병원)",
      "name": "청화병원부설산후조리원",
      "address": "서울특별시 동작구 장승배기로 108 (노량진동, 청화병원)",
      "phone": "02-6496-5650",
      "lat": 37.5043423,
      "lng": 126.9422693,
      "motherCapacity": 36,
      "infantCapacity": 36,
      "nurseCount": 8,
      "nurseAidCount": 22
    },
    {
      "id": "Saint_park_산후조리원_서울특별시_강남구_삼성로120길_30,_B1,1,2층_(삼성동)",
      "name": "Saint park 산후조리원",
      "address": "서울특별시 강남구 삼성로120길 30, B1,1,2층 (삼성동)",
      "phone": "518-9782",
      "lat": 37.5149001,
      "lng": 127.0557279,
      "motherCapacity": 11,
      "infantCapacity": 11,
      "nurseCount": 12,
      "nurseAidCount": 3
    },
    {
      "id": "호산산후조리원_서울특별시_강남구_압구정로38길_6,_1~5층_(신사동)",
      "name": "호산산후조리원",
      "address": "서울특별시 강남구 압구정로38길 6, 1~5층 (신사동)",
      "phone": "02-546-3493",
      "lat": 37.5255515,
      "lng": 127.0344208,
      "motherCapacity": 14,
      "infantCapacity": 14,
      "nurseCount": 4,
      "nurseAidCount": 12
    },
    {
      "id": "카리스산후조리원(보라매점)_서울특별시_동작구_보라매로5가길_16_(신대방동,_보라매아카데미타워)",
      "name": "카리스산후조리원(보라매점)",
      "address": "서울특별시 동작구 보라매로5가길 16 (신대방동, 보라매아카데미타워)",
      "phone": "",
      "lat": 37.4885267,
      "lng": 126.9261996,
      "motherCapacity": 17,
      "infantCapacity": 17,
      "nurseCount": 8,
      "nurseAidCount": 20
    },
    {
      "id": "아이린산후조리원_망원점_서울특별시_마포구_월드컵로_155_(망원동)",
      "name": "아이린산후조리원 망원점",
      "address": "서울특별시 마포구 월드컵로 155 (망원동)",
      "phone": "3142-1212",
      "lat": 37.5585779,
      "lng": 126.9070018,
      "motherCapacity": 12,
      "infantCapacity": 12,
      "nurseCount": 3,
      "nurseAidCount": 9
    },
    {
      "id": "주식회사_레피리움시그니처_홍대_산후조리원_서울특별시_마포구_월드컵북로_137_(성산동,CS타워_10층)",
      "name": "주식회사 레피리움시그니처 홍대 산후조리원",
      "address": "서울특별시 마포구 월드컵북로 137 (성산동,CS타워 10층)",
      "phone": "02-3142-3003",
      "lat": 37.5620394,
      "lng": 126.9138754,
      "motherCapacity": 14,
      "infantCapacity": 14,
      "nurseCount": 5,
      "nurseAidCount": 6
    },
    {
      "id": "트리니티산후조리원(삼성점)_서울특별시_강남구_삼성로_548,_SISOMO_TOWER_2~4층_(삼성동)",
      "name": "트리니티산후조리원(삼성점)",
      "address": "서울특별시 강남구 삼성로 548, SISOMO TOWER 2~4층 (삼성동)",
      "phone": "02-508-0013",
      "lat": 37.5078149,
      "lng": 127.0571462,
      "motherCapacity": 19,
      "infantCapacity": 24,
      "nurseCount": 4,
      "nurseAidCount": 12
    },
    {
      "id": "(주)그녀의_정원_드라마_서울특별시_강남구_언주로_303,_3~5층_(역삼동)",
      "name": "(주)그녀의 정원 드라마",
      "address": "서울특별시 강남구 언주로 303, 3~5층 (역삼동)",
      "phone": "02-3453-4628",
      "lat": 37.4917725,
      "lng": 127.0481755,
      "motherCapacity": 22,
      "infantCapacity": 22,
      "nurseCount": 18,
      "nurseAidCount": 0
    },
    {
      "id": "주식회사_맘스밀리_산후조리원_강남점_서울특별시_강남구_도곡로6길_13,_1~7층_(도곡동)",
      "name": "주식회사 맘스밀리 산후조리원 강남점",
      "address": "서울특별시 강남구 도곡로6길 13, 1~7층 (도곡동)",
      "phone": "02-577-8677",
      "lat": 37.486588,
      "lng": 127.0366237,
      "motherCapacity": 18,
      "infantCapacity": 18,
      "nurseCount": 4,
      "nurseAidCount": 16
    },
    {
      "id": "(주)헤리티지산후조리원_서울특별시_강남구_삼성로_635,_한섬빌딩_(삼성동)",
      "name": "(주)헤리티지산후조리원",
      "address": "서울특별시 강남구 삼성로 635, 한섬빌딩 (삼성동)",
      "phone": "",
      "lat": 37.5137484,
      "lng": 127.053083,
      "motherCapacity": 16,
      "infantCapacity": 16,
      "nurseCount": 4,
      "nurseAidCount": 0
    },
    {
      "id": "헤리티지_산후조리원_2호점_서울특별시_강남구_영동대로141길_20,_헤리티지산후조리원2호점_(청담동)",
      "name": "헤리티지 산후조리원 2호점",
      "address": "서울특별시 강남구 영동대로141길 20, 헤리티지산후조리원2호점 (청담동)",
      "phone": "02)517-2433",
      "lat": 37.5202574,
      "lng": 127.0552146,
      "motherCapacity": 20,
      "infantCapacity": 20,
      "nurseCount": 20,
      "nurseAidCount": 0
    },
    {
      "id": "윤호_산후조리원_서울특별시_강남구_압구정로_304,_윤호병원_5~6층_(신사동)",
      "name": "윤호 산후조리원",
      "address": "서울특별시 강남구 압구정로 304, 윤호병원 5~6층 (신사동)",
      "phone": "02-512-0500",
      "lat": 37.5260571,
      "lng": 127.0364895,
      "motherCapacity": 13,
      "infantCapacity": 13,
      "nurseCount": 4,
      "nurseAidCount": 8
    },
    {
      "id": "청담마리더블레스_산후조리원_서울특별시_강남구_학동로97길_21-3,_청담마리더블레스_(청담동)",
      "name": "청담마리더블레스 산후조리원",
      "address": "서울특별시 강남구 학동로97길 21-3, 청담마리더블레스 (청담동)",
      "phone": "02-3471-2233",
      "lat": 37.5181932,
      "lng": 127.0570282,
      "motherCapacity": 21,
      "infantCapacity": 21,
      "nurseCount": 5,
      "nurseAidCount": 25
    },
    {
      "id": "주식회사_드라마글로벌_산후조리원_서울특별시_강남구_언주로_303_(역삼동)",
      "name": "주식회사 드라마글로벌 산후조리원",
      "address": "서울특별시 강남구 언주로 303 (역삼동)",
      "phone": "02-3453-4628",
      "lat": 37.4917725,
      "lng": 127.0481755,
      "motherCapacity": 7,
      "infantCapacity": 7,
      "nurseCount": 3,
      "nurseAidCount": 0
    },
    {
      "id": "궁산후조리원_강남본원지점_서울특별시_강남구_언주로107길_35_(역삼동)",
      "name": "궁산후조리원 강남본원지점",
      "address": "서울특별시 강남구 언주로107길 35 (역삼동)",
      "phone": "02-555-9550",
      "lat": 37.5041939,
      "lng": 127.0384793,
      "motherCapacity": 19,
      "infantCapacity": 22,
      "nurseCount": 4,
      "nurseAidCount": 7
    },
    {
      "id": "더_궁_산후조리원_서울특별시_강남구_봉은사로111길_111-13_(삼성동,_마당빌딩)",
      "name": "더 궁 산후조리원",
      "address": "서울특별시 강남구 봉은사로111길 111-13 (삼성동, 마당빌딩)",
      "phone": "547-5047",
      "lat": 37.5133337,
      "lng": 127.0672032,
      "motherCapacity": 17,
      "infantCapacity": 17,
      "nurseCount": 8,
      "nurseAidCount": 4
    },
    {
      "id": "M&H_산후조리원_서울특별시_강남구_언주로_707,_MH빌딩_12,13층_(논현동)",
      "name": "M&H 산후조리원",
      "address": "서울특별시 강남구 언주로 707, MH빌딩 12,13층 (논현동)",
      "phone": "3446-3434",
      "lat": 37.5134294,
      "lng": 127.0371245,
      "motherCapacity": 16,
      "infantCapacity": 16,
      "nurseCount": 11,
      "nurseAidCount": 15
    },
    {
      "id": "(주)_레피리움네이쳐_산후조리원_서울특별시_서대문구_신촌역로_10,_6층_601호_(대현동,_혜우빌딩)",
      "name": "(주) 레피리움네이쳐 산후조리원",
      "address": "서울특별시 서대문구 신촌역로 10, 6층 601호 (대현동, 혜우빌딩)",
      "phone": "02-362-7500",
      "lat": 37.554842,
      "lng": 126.9452669,
      "motherCapacity": 19,
      "infantCapacity": 19,
      "nurseCount": 3,
      "nurseAidCount": 7
    },
    {
      "id": "(주)포미즈타임산후조리원_서울특별시_양천구_공항대로_610_(목동,_정종일산부인과)",
      "name": "(주)포미즈타임산후조리원",
      "address": "서울특별시 양천구 공항대로 610 (목동, 정종일산부인과)",
      "phone": "",
      "lat": 37.5439643,
      "lng": 126.8742757,
      "motherCapacity": 6,
      "infantCapacity": 6,
      "nurseCount": 3,
      "nurseAidCount": ""
    },
    {
      "id": "인정산후조리원_서울특별시_은평구_응암로_164_(응암동,연송빌딩_4,5층)",
      "name": "인정산후조리원",
      "address": "서울특별시 은평구 응암로 164 (응암동,연송빌딩 4,5층)",
      "phone": "02-309-7535",
      "lat": 37.5838065,
      "lng": 126.9186797,
      "motherCapacity": 20,
      "infantCapacity": 20,
      "nurseCount": 4,
      "nurseAidCount": 7
    },
    {
      "id": "라솜_산후조리원_은평점_서울특별시_은평구_응암로_235_(응암동)",
      "name": "라솜 산후조리원 은평점",
      "address": "서울특별시 은평구 응암로 235 (응암동)",
      "phone": "02-6010-0702",
      "lat": 37.5902146,
      "lng": 126.9196873,
      "motherCapacity": 14,
      "infantCapacity": 14,
      "nurseCount": 3,
      "nurseAidCount": 3
    },
    {
      "id": "아이젤_산후조리원_서울특별시_은평구_서오릉로_82_(대조동)",
      "name": "아이젤 산후조리원",
      "address": "서울특별시 은평구 서오릉로 82 (대조동)",
      "phone": "355-0069",
      "lat": 37.6049686,
      "lng": 126.9241419,
      "motherCapacity": 23,
      "infantCapacity": 23,
      "nurseCount": 3,
      "nurseAidCount": 8
    },
    {
      "id": "메르디앙_산후조리원_서울특별시_영등포구_도신로_116,_대웅빌딩_(신길동)",
      "name": "메르디앙 산후조리원",
      "address": "서울특별시 영등포구 도신로 116, 대웅빌딩 (신길동)",
      "phone": "02-848-3579",
      "lat": 37.5052285,
      "lng": 126.9071414,
      "motherCapacity": 21,
      "infantCapacity": 21,
      "nurseCount": 3,
      "nurseAidCount": 2
    },
    {
      "id": "목동_굿맘_산후조리원_서울특별시_양천구_신월로_338,_원빌딩_4층_(신정동)",
      "name": "목동 굿맘 산후조리원",
      "address": "서울특별시 양천구 신월로 338, 원빌딩 4층 (신정동)",
      "phone": "",
      "lat": 37.5187483,
      "lng": 126.8605248,
      "motherCapacity": 13,
      "infantCapacity": 13,
      "nurseCount": 3,
      "nurseAidCount": 5
    },
    {
      "id": "밝은미래산후조리원_서울특별시_양천구_남부순환로_654,_진덕빌딩_10층_(신정동)",
      "name": "밝은미래산후조리원",
      "address": "서울특별시 양천구 남부순환로 654, 진덕빌딩 10층 (신정동)",
      "phone": "02-2619-1000",
      "lat": 37.5078798,
      "lng": 126.843824,
      "motherCapacity": 13,
      "infantCapacity": 13,
      "nurseCount": 4,
      "nurseAidCount": 5
    },
    {
      "id": "팰리스산후조리원_서울특별시_양천구_신월로_164,_승일뷰티타워2_7층_(신월동)",
      "name": "팰리스산후조리원",
      "address": "서울특별시 양천구 신월로 164, 승일뷰티타워2 7층 (신월동)",
      "phone": "02-2601-3588",
      "lat": 37.5149065,
      "lng": 126.8440937,
      "motherCapacity": 19,
      "infantCapacity": 19,
      "nurseCount": 4,
      "nurseAidCount": 5
    },
    {
      "id": "목동제일산후조리원_서울특별시_양천구_중앙로_300,_시온빌딩_6~8층_(신정동)",
      "name": "목동제일산후조리원",
      "address": "서울특별시 양천구 중앙로 300, 시온빌딩 6~8층 (신정동)",
      "phone": "02)6927-3647",
      "lat": 37.5202245,
      "lng": 126.8539064,
      "motherCapacity": 14,
      "infantCapacity": 14,
      "nurseCount": 2,
      "nurseAidCount": 2
    },
    {
      "id": "㈜레피리움시그니쳐_서울특별시_양천구_오목로_325_(목동)",
      "name": "㈜레피리움시그니쳐",
      "address": "서울특별시 양천구 오목로 325 (목동)",
      "phone": "02-6491-1001",
      "lat": 37.5223525,
      "lng": 126.8758102,
      "motherCapacity": 16,
      "infantCapacity": 16,
      "nurseCount": 4,
      "nurseAidCount": 7
    },
    {
      "id": "뉴이자르_산후조리원_목동점_서울특별시_양천구_목동중앙남로3가길_127,_2층_(목동,_상진지오벨리)",
      "name": "뉴이자르 산후조리원 목동점",
      "address": "서울특별시 양천구 목동중앙남로3가길 127, 2층 (목동, 상진지오벨리)",
      "phone": "02-2061-6001",
      "lat": 37.5385711,
      "lng": 126.8660625,
      "motherCapacity": 18,
      "infantCapacity": 18,
      "nurseCount": 4,
      "nurseAidCount": 4
    },
    {
      "id": "라솜산후조리원_창경궁지점_서울특별시_종로구_율곡로_174,_창경빌딩_2,3,4층_(원남동)",
      "name": "라솜산후조리원 창경궁지점",
      "address": "서울특별시 종로구 율곡로 174, 창경빌딩 2,3,4층 (원남동)",
      "phone": "02-763-5400",
      "lat": 37.5728328,
      "lng": 127.0000705,
      "motherCapacity": 16,
      "infantCapacity": 16,
      "nurseCount": 3,
      "nurseAidCount": 12
    },
    {
      "id": "올리비움산후조리원_서울특별시_종로구_통일로16길_4-1_(무악동)",
      "name": "올리비움산후조리원",
      "address": "서울특별시 종로구  통일로16길  4-1 (무악동)",
      "phone": "02-738-3335",
      "lat": 37.5729417,
      "lng": 126.9596736,
      "motherCapacity": 60,
      "infantCapacity": 60,
      "nurseCount": 6,
      "nurseAidCount": 45
    },
    {
      "id": "라솜산후조리원_성북지점_서울특별시_성북구_동소문로_48,_동도빌딩_3층_(동소문동3가)",
      "name": "라솜산후조리원 성북지점",
      "address": "서울특별시 성북구 동소문로 48, 동도빌딩 3층 (동소문동3가)",
      "phone": "02-922-1400",
      "lat": 37.5875,
      "lng": 127.0131402,
      "motherCapacity": 14,
      "infantCapacity": 14,
      "nurseCount": 3,
      "nurseAidCount": 3
    },
    {
      "id": "주식회사_라솜산후조리원_서울특별시_영등포구_선유로_63_(문래동6가,_EEU동신타워)",
      "name": "주식회사 라솜산후조리원",
      "address": "서울특별시 영등포구 선유로 63 (문래동6가, EEU동신타워)",
      "phone": "02-2679-5005",
      "lat": 37.5168447,
      "lng": 126.8911341,
      "motherCapacity": 16,
      "infantCapacity": 16,
      "nurseCount": 4,
      "nurseAidCount": 10
    },
    {
      "id": "이든포레_서울특별시_성동구_고산자로6길_40,_행당동_레몬프라자_6층_601호_(행당동)",
      "name": "이든포레",
      "address": "서울특별시 성동구 고산자로6길 40, 행당동 레몬프라자 6층 601호 (행당동)",
      "phone": "",
      "lat": 37.5554617,
      "lng": 127.0376608,
      "motherCapacity": 22,
      "infantCapacity": 22,
      "nurseCount": 4,
      "nurseAidCount": 10
    },
    {
      "id": "아이맘-s산후조리원_서울특별시_중랑구_망우로_411,_에이동_(망우동)",
      "name": "아이맘-s산후조리원",
      "address": "서울특별시 중랑구 망우로 411, 에이동 (망우동)",
      "phone": "02-496-3425",
      "lat": 37.5969337,
      "lng": 127.0996912,
      "motherCapacity": 11,
      "infantCapacity": 11,
      "nurseCount": 2,
      "nurseAidCount": 6
    },
    {
      "id": "뉴이자르_산후조리원_태릉점_서울특별시_중랑구_중랑역로_257,_신흥빌딩_4~5층_(묵동)",
      "name": "뉴이자르 산후조리원 태릉점",
      "address": "서울특별시 중랑구 중랑역로 257, 신흥빌딩 4~5층 (묵동)",
      "phone": "02-972-7667",
      "lat": 37.6130518,
      "lng": 127.0787166,
      "motherCapacity": 23,
      "infantCapacity": 23,
      "nurseCount": 4,
      "nurseAidCount": 13
    },
    {
      "id": "레피리움시그니처신내_산후조리원_서울특별시_중랑구_신내로16길_76_(신내동)",
      "name": "레피리움시그니처신내 산후조리원",
      "address": "서울특별시 중랑구 신내로16길 76 (신내동)",
      "phone": "02-3421-5553",
      "lat": 37.6100042,
      "lng": 127.1022121,
      "motherCapacity": 23,
      "infantCapacity": 23,
      "nurseCount": 4,
      "nurseAidCount": 16
    },
    {
      "id": "강동드림_산후조리원_서울특별시_강동구_상일로12길_97,_강동드림산부인과_3층_(강일동)",
      "name": "강동드림 산후조리원",
      "address": "서울특별시 강동구 상일로12길 97, 강동드림산부인과 3층 (강일동)",
      "phone": "02-341-4567",
      "lat": 37.5540345,
      "lng": 127.1747737,
      "motherCapacity": 15,
      "infantCapacity": 15,
      "nurseCount": 3,
      "nurseAidCount": 3
    },
    {
      "id": "전라남도_지정_4호_공공산후조리원_전라남도_나주시_정보화길_49,_2층_(빛가람동)",
      "name": "전라남도 지정 4호 공공산후조리원",
      "address": "전라남도 나주시 정보화길 49, 2층 (빛가람동)",
      "phone": "",
      "lat": 35.0214319,
      "lng": 126.8012373,
      "motherCapacity": 16,
      "infantCapacity": 18,
      "nurseCount": 5,
      "nurseAidCount": 6
    },
    {
      "id": "헤세드산후조리원(주)_경기도_성남시_수정구_위례서일로_12,_우남_이타워_프라자_9층_(창곡동)",
      "name": "헤세드산후조리원(주)",
      "address": "경기도 성남시 수정구 위례서일로 12, 우남 이타워 프라자 9층 (창곡동)",
      "phone": "031-755-5366",
      "lat": 37.4624939,
      "lng": 127.1395016,
      "motherCapacity": 22,
      "infantCapacity": 26,
      "nurseCount": 3,
      "nurseAidCount": 5
    },
    {
      "id": "위드유산후조리원_경상북도_포항시_북구_우창동로_30,_2층_(우현동)",
      "name": "위드유산후조리원",
      "address": "경상북도 포항시 북구 우창동로 30, 2층 (우현동)",
      "phone": 542560002,
      "lat": 36.0524701,
      "lng": 129.3652114,
      "motherCapacity": 16,
      "infantCapacity": 16,
      "nurseCount": 4,
      "nurseAidCount": 6
    },
    {
      "id": "밀양공공산후조리원_경상남도_밀양시_백민로_36-1(내이동)",
      "name": "밀양공공산후조리원",
      "address": "경상남도 밀양시 백민로 36-1(내이동)",
      "phone": "055-352-8006",
      "lat": 35.4929972,
      "lng": 128.7500392,
      "motherCapacity": 8,
      "infantCapacity": 8,
      "nurseCount": 5,
      "nurseAidCount": 5
    },
    {
      "id": "ANIDAR_산후조리원_서울특별시_강남구_선릉로_629_(논현동)",
      "name": "ANIDAR 산후조리원",
      "address": "서울특별시 강남구 선릉로 629 (논현동)",
      "phone": "",
      "lat": 37.5100928,
      "lng": 127.0446447,
      "motherCapacity": 3,
      "infantCapacity": 4,
      "nurseCount": 4,
      "nurseAidCount": 0
    },
    {
      "id": "트리니티산후조리원판교_주식회사_경기도_성남시_분당구_서판교로_150,_3,4층_(판교동)",
      "name": "트리니티산후조리원판교 주식회사",
      "address": "경기도 성남시 분당구 서판교로 150, 3,4층 (판교동)",
      "phone": "",
      "lat": 37.3966146,
      "lng": 127.0975712,
      "motherCapacity": 14,
      "infantCapacity": 14,
      "nurseCount": 2,
      "nurseAidCount": 2
    },
    {
      "id": "퀸즈포레산후조리원_강원특별자치도_춘천시_옛경춘로_732,_3,4층_(삼천동)",
      "name": "퀸즈포레산후조리원",
      "address": "강원특별자치도 춘천시 옛경춘로 732, 3,4층 (삼천동)",
      "phone": "033-256-3579",
      "lat": 37.8599368,
      "lng": 127.7100378,
      "motherCapacity": 22,
      "infantCapacity": 22,
      "nurseCount": 7,
      "nurseAidCount": 6
    },
    {
      "id": "라비에벨_산후조리원_경기도_양주시_고읍남로_5-22,_에이치비프라자_4~8층_(광사동)",
      "name": "라비에벨 산후조리원",
      "address": "경기도 양주시 고읍남로 5-22, 에이치비프라자 4~8층 (광사동)",
      "phone": "031-821-2234",
      "lat": 37.7918028,
      "lng": 127.0822611,
      "motherCapacity": 20,
      "infantCapacity": 20,
      "nurseCount": 3,
      "nurseAidCount": 3
    }
  ],
  "meta": {
    "description": "전국 산후조리원 현황 데이터",
    "source": "공공데이터포털 (rawdata/산후조리원.csv)",
    "lastUpdated": "2025-05-12T11:28:16.051Z"
  }
}